{
  "stationsQ": [
    {
      "station": "U251542001",
      "label": "Vaire-Arcier",
      "cours": "source d'Arcier",
      "commune": "25575",
      "evenement": [],
      "gps": {
        "lat": 47.26879521586723,
        "lon": 6.11899675554058
      }
    },
    {
      "station": "E640091001",
      "label": "Lamotte-Brebière",
      "cours": "Somme canalisée",
      "commune": "80461",
      "evenement": [],
      "gps": {
        "lat": 49.88426840633553,
        "lon": 2.396664264269847
      }
    },
    {
      "station": "H520101003",
      "label": "Châlons-en-Champagne",
      "cours": "Marne",
      "commune": "51108",
      "evenement": [],
      "gps": {
        "lat": 48.95095128066497,
        "lon": 4.353723063341069
      }
    },
    {
      "station": "O919001001",
      "label": "La Réole",
      "cours": "Garonne",
      "commune": "33352",
      "evenement": {
        "DescEvenement": "Station de La Réole: les hauteurs affichées sur le site sont données selon une référence altimétrique locale propre à la station de mesure. Pour obtenir la hauteur rapportée au nivellement général de la France (NGF IGN69), ajoutez 6,23 à la valeur lue.",
        "DtEvenement": "2017-02-28 14:30:31"
      },
      "gps": {
        "lat": 44.57765960180708,
        "lon": -0.036048421867029744
      }
    },
    {
      "station": "U132401001",
      "label": "Plombières-les-Dijon",
      "cours": "Ouche",
      "commune": "21485",
      "evenement": [],
      "gps": {
        "lat": 47.332536182920364,
        "lon": 4.980948456957807
      }
    },
    {
      "station": "K435001010",
      "label": "Orléans [Pont Royal]",
      "cours": "Loire",
      "commune": "45234",
      "evenement": {
        "DescEvenement": "Station de référence en crue, située au pont George V, dont les valeurs sont publiées dans le bulletin d&#039;information du SPC.\nIl n&#039;y a pas de concordance des hauteurs entre les 2 stations, Orléans Pont et Orléans Quai.\n",
        "DtEvenement": "2017-02-28 14:30:31"
      },
      "gps": {
        "lat": 47.89732382319809,
        "lon": 1.9047891133749535
      }
    },
    {
      "station": "I362101001",
      "label": "May-sur-Orne",
      "cours": "Orne",
      "commune": "14408",
      "evenement": [],
      "gps": {
        "lat": 49.1096254657618,
        "lon": -0.3863684642825236
      }
    },
    {
      "station": "L040061002",
      "label": "Limoges [Pont-Neuf]",
      "cours": "Vienne",
      "commune": "87085",
      "evenement": [],
      "gps": {
        "lat": 45.82564459174513,
        "lon": 1.2699518950681945
      }
    },
    {
      "station": "A061005051",
      "label": "Strasbourg [sémaphore nord] [Limnimètre]",
      "cours": "Rhin",
      "commune": "67482",
      "evenement": {
        "DescEvenement": "ATTENTION, en raison des conditions locales*, les débits indiqués ne sont fiables que pour des valeurs supérieures à 1700 m3/s. Des valeurs erronées peuvent être affichées pour des débits plus faibles. * se reporter à la Banque Hydro pour plus de précisions (onglet 'infos station' puis 'FICHE STATION')",
        "DtEvenement": "2017-03-02 10:40:31"
      },
      "gps": {
        "lat": 48.59254033692791,
        "lon": 7.802870978789727
      }
    },
    {
      "station": "A743061001",
      "label": "Metz [pont des Morts]",
      "cours": "Moselle",
      "commune": "57463",
      "evenement": [],
      "gps": {
        "lat": 49.122321530831165,
        "lon": 6.167185612157847
      }
    },
    {
      "station": "E381126501",
      "label": "Bousbecque",
      "cours": "Lys",
      "commune": "59098",
      "evenement": [],
      "gps": {
        "lat": 50.775864391041026,
        "lon": 3.07379561839313
      }
    },
    {
      "station": "F700000103",
      "label": "Paris [Austerlitz - Station ultrason]",
      "cours": "Seine",
      "commune": "75056",
      "evenement": [],
      "gps": {
        "lat": 48.844689579677976,
        "lon": 2.365510635426925
      }
    },
    {
      "station": "K322201001",
      "label": "Pontgibaud",
      "cours": "Sioule",
      "commune": "63285",
      "evenement": [],
      "gps": {
        "lat": 45.83323730672589,
        "lon": 2.8490482062724505
      }
    },
    {
      "station": "H438021010",
      "label": "Louviers",
      "cours": "Eure",
      "commune": "27375",
      "evenement": [],
      "gps": {
        "lat": 49.224075299459614,
        "lon": 1.1769177238429835
      }
    },
    {
      "station": "J709063002",
      "label": "Cesson-Sévigné [Pont Briant]",
      "cours": "Vilaine",
      "commune": "35051",
      "evenement": [],
      "gps": {
        "lat": 48.12370697186764,
        "lon": -1.5637493986757462
      }
    },
    {
      "station": "O200001001",
      "label": "Portet",
      "cours": "Garonne",
      "commune": "31433",
      "evenement": [],
      "gps": {
        "lat": 43.526472706557456,
        "lon": 1.415129716580194
      }
    },
    {
      "station": "M530001010",
      "label": "Montjean",
      "cours": "Loire",
      "commune": "49212",
      "evenement": [],
      "gps": {
        "lat": 47.39230510140693,
        "lon": -0.861211184981625
      }
    },
    {
      "station": "Y442404001",
      "label": "Aubagne [Le Charrel]",
      "cours": "Huveaune",
      "commune": "13005",
      "evenement": [],
      "gps": {
        "lat": 43.28953266359409,
        "lon": 5.556903221296799
      }
    },
    {
      "station": "Y321001001",
      "label": "Montpellier [Garigliano]",
      "cours": "Lez",
      "commune": "34172",
      "evenement": [],
      "gps": {
        "lat": 43.618769804122614,
        "lon": 3.8967318689103423
      }
    },
    {
      "station": "V163002002",
      "label": "Lagnieu [DREAL Rhône Alpes]",
      "cours": "Rhône",
      "commune": "01202",
      "evenement": {
        "DescEvenement": "Les débits sont publiés à partir de 158m3/s (hauteur > 0.20m).",
        "DtEvenement": "2017-02-28 14:30:31"
      },
      "gps": {
        "lat": 45.88088838299317,
        "lon": 5.340233187454063
      }
    },
    {
      "station": "L250161001",
      "label": "Dissay",
      "cours": "Clain",
      "commune": "86095",
      "evenement": [],
      "gps": {
        "lat": 46.702576572590004,
        "lon": 0.4227290823793132
      }
    },
    {
      "station": "U251542001",
      "label": "Vaire-Arcier",
      "cours": "source d'Arcier",
      "commune": "25575",
      "evenement": [],
      "gps": {
        "lat": 47.26879521586723,
        "lon": 6.11899675554058
      }
    },
    {
      "station": "U132401001",
      "label": "Plombières-les-Dijon",
      "cours": "Ouche",
      "commune": "21485",
      "evenement": [],
      "gps": {
        "lat": 47.332536182920364,
        "lon": 4.980948456957807
      }
    },
    {
      "station": "O919001001",
      "label": "La Réole",
      "cours": "Garonne",
      "commune": "33352",
      "evenement": {
        "DescEvenement": "Station de La Réole: les hauteurs affichées sur le site sont données selon une référence altimétrique locale propre à la station de mesure. Pour obtenir la hauteur rapportée au nivellement général de la France (NGF IGN69), ajoutez 6,23 à la valeur lue.",
        "DtEvenement": "2017-02-28 14:30:31"
      },
      "gps": {
        "lat": 44.57765960180708,
        "lon": -0.036048421867029744
      }
    },
    {
      "station": "K322201001",
      "label": "Pontgibaud",
      "cours": "Sioule",
      "commune": "63285",
      "evenement": [],
      "gps": {
        "lat": 45.83323730672589,
        "lon": 2.8490482062724505
      }
    },
    {
      "station": "H520101003",
      "label": "Châlons-en-Champagne",
      "cours": "Marne",
      "commune": "51108",
      "evenement": [],
      "gps": {
        "lat": 48.95095128066497,
        "lon": 4.353723063341069
      }
    },
    {
      "station": "E640091001",
      "label": "Lamotte-Brebière",
      "cours": "Somme canalisée",
      "commune": "80461",
      "evenement": [],
      "gps": {
        "lat": 49.88426840633553,
        "lon": 2.396664264269847
      }
    },
    {
      "station": "V163002002",
      "label": "Lagnieu [DREAL Rhône Alpes]",
      "cours": "Rhône",
      "commune": "01202",
      "evenement": {
        "DescEvenement": "Les débits sont publiés à partir de 158m3/s (hauteur > 0.20m).",
        "DtEvenement": "2017-02-28 14:30:31"
      },
      "gps": {
        "lat": 45.88088838299317,
        "lon": 5.340233187454063
      }
    },
    {
      "station": "H438021010",
      "label": "Louviers",
      "cours": "Eure",
      "commune": "27375",
      "evenement": [],
      "gps": {
        "lat": 49.224075299459614,
        "lon": 1.1769177238429835
      }
    },
    {
      "station": "M530001010",
      "label": "Montjean",
      "cours": "Loire",
      "commune": "49212",
      "evenement": [],
      "gps": {
        "lat": 47.39230510140693,
        "lon": -0.861211184981625
      }
    },
    {
      "station": "E381126501",
      "label": "Bousbecque",
      "cours": "Lys",
      "commune": "59098",
      "evenement": [],
      "gps": {
        "lat": 50.775864391041026,
        "lon": 3.07379561839313
      }
    },
    {
      "station": "F700000103",
      "label": "Paris [Austerlitz - Station ultrason]",
      "cours": "Seine",
      "commune": "75056",
      "evenement": [],
      "gps": {
        "lat": 48.844689579677976,
        "lon": 2.365510635426925
      }
    },
    {
      "station": "Y321001001",
      "label": "Montpellier [Garigliano]",
      "cours": "Lez",
      "commune": "34172",
      "evenement": [],
      "gps": {
        "lat": 43.618769804122614,
        "lon": 3.8967318689103423
      }
    },
    {
      "station": "A061005051",
      "label": "Strasbourg [sémaphore nord] [Limnimètre]",
      "cours": "Rhin",
      "commune": "67482",
      "evenement": {
        "DescEvenement": "ATTENTION, en raison des conditions locales*, les débits indiqués ne sont fiables que pour des valeurs supérieures à 1700 m3/s. Des valeurs erronées peuvent être affichées pour des débits plus faibles. * se reporter à la Banque Hydro pour plus de précisions (onglet 'infos station' puis 'FICHE STATION')",
        "DtEvenement": "2017-03-02 10:40:31"
      },
      "gps": {
        "lat": 48.59254033692791,
        "lon": 7.802870978789727
      }
    },
    {
      "station": "I362101001",
      "label": "May-sur-Orne",
      "cours": "Orne",
      "commune": "14408",
      "evenement": [],
      "gps": {
        "lat": 49.1096254657618,
        "lon": -0.3863684642825236
      }
    },
    {
      "station": "K435001010",
      "label": "Orléans [Pont Royal]",
      "cours": "Loire",
      "commune": "45234",
      "evenement": {
        "DescEvenement": "Station de référence en crue, située au pont George V, dont les valeurs sont publiées dans le bulletin d&#039;information du SPC.\nIl n&#039;y a pas de concordance des hauteurs entre les 2 stations, Orléans Pont et Orléans Quai.\n",
        "DtEvenement": "2017-02-28 14:30:31"
      },
      "gps": {
        "lat": 47.89732382319809,
        "lon": 1.9047891133749535
      }
    },
    {
      "station": "Y442404001",
      "label": "Aubagne [Le Charrel]",
      "cours": "Huveaune",
      "commune": "13005",
      "evenement": [],
      "gps": {
        "lat": 43.28953266359409,
        "lon": 5.556903221296799
      }
    },
    {
      "station": "A743061001",
      "label": "Metz [pont des Morts]",
      "cours": "Moselle",
      "commune": "57463",
      "evenement": [],
      "gps": {
        "lat": 49.122321530831165,
        "lon": 6.167185612157847
      }
    },
    {
      "station": "J709063002",
      "label": "Cesson-Sévigné [Pont Briant]",
      "cours": "Vilaine",
      "commune": "35051",
      "evenement": [],
      "gps": {
        "lat": 48.12370697186764,
        "lon": -1.5637493986757462
      }
    },
    {
      "station": "L040061002",
      "label": "Limoges [Pont-Neuf]",
      "cours": "Vienne",
      "commune": "87085",
      "evenement": [],
      "gps": {
        "lat": 45.82564459174513,
        "lon": 1.2699518950681945
      }
    },
    {
      "station": "L250161001",
      "label": "Dissay",
      "cours": "Clain",
      "commune": "86095",
      "evenement": [],
      "gps": {
        "lat": 46.702576572590004,
        "lon": 0.4227290823793132
      }
    },
    {
      "station": "O200001001",
      "label": "Portet",
      "cours": "Garonne",
      "commune": "31433",
      "evenement": [],
      "gps": {
        "lat": 43.526472706557456,
        "lon": 1.415129716580194
      }
    },
    {
      "station": "H520101003",
      "label": "Châlons-en-Champagne",
      "cours": "Marne",
      "commune": "51108",
      "evenement": [],
      "gps": {
        "lat": 48.95095128066497,
        "lon": 4.353723063341069
      }
    },
    {
      "station": "U251542001",
      "label": "Vaire-Arcier",
      "cours": "source d'Arcier",
      "commune": "25575",
      "evenement": [],
      "gps": {
        "lat": 47.26879521586723,
        "lon": 6.11899675554058
      }
    },
    {
      "station": "I362101001",
      "label": "May-sur-Orne",
      "cours": "Orne",
      "commune": "14408",
      "evenement": [],
      "gps": {
        "lat": 49.1096254657618,
        "lon": -0.3863684642825236
      }
    },
    {
      "station": "E640091001",
      "label": "Lamotte-Brebière",
      "cours": "Somme canalisée",
      "commune": "80461",
      "evenement": [],
      "gps": {
        "lat": 49.88426840633553,
        "lon": 2.396664264269847
      }
    },
    {
      "station": "L040061002",
      "label": "Limoges [Pont-Neuf]",
      "cours": "Vienne",
      "commune": "87085",
      "evenement": [],
      "gps": {
        "lat": 45.82564459174513,
        "lon": 1.2699518950681945
      }
    },
    {
      "station": "A743061001",
      "label": "Metz [pont des Morts]",
      "cours": "Moselle",
      "commune": "57463",
      "evenement": [],
      "gps": {
        "lat": 49.122321530831165,
        "lon": 6.167185612157847
      }
    },
    {
      "station": "K322201001",
      "label": "Pontgibaud",
      "cours": "Sioule",
      "commune": "63285",
      "evenement": [],
      "gps": {
        "lat": 45.83323730672589,
        "lon": 2.8490482062724505
      }
    },
    {
      "station": "K435001010",
      "label": "Orléans [Pont Royal]",
      "cours": "Loire",
      "commune": "45234",
      "evenement": {
        "DescEvenement": "Station de référence en crue, située au pont George V, dont les valeurs sont publiées dans le bulletin d&#039;information du SPC.\nIl n&#039;y a pas de concordance des hauteurs entre les 2 stations, Orléans Pont et Orléans Quai.\n",
        "DtEvenement": "2017-02-28 14:30:31"
      },
      "gps": {
        "lat": 47.89732382319809,
        "lon": 1.9047891133749535
      }
    },
    {
      "station": "Y442404001",
      "label": "Aubagne [Le Charrel]",
      "cours": "Huveaune",
      "commune": "13005",
      "evenement": [],
      "gps": {
        "lat": 43.28953266359409,
        "lon": 5.556903221296799
      }
    },
    {
      "station": "A061005051",
      "label": "Strasbourg [sémaphore nord] [Limnimètre]",
      "cours": "Rhin",
      "commune": "67482",
      "evenement": {
        "DescEvenement": "ATTENTION, en raison des conditions locales*, les débits indiqués ne sont fiables que pour des valeurs supérieures à 1700 m3/s. Des valeurs erronées peuvent être affichées pour des débits plus faibles. * se reporter à la Banque Hydro pour plus de précisions (onglet 'infos station' puis 'FICHE STATION')",
        "DtEvenement": "2017-03-02 10:40:31"
      },
      "gps": {
        "lat": 48.59254033692791,
        "lon": 7.802870978789727
      }
    },
    {
      "station": "H438021010",
      "label": "Louviers",
      "cours": "Eure",
      "commune": "27375",
      "evenement": [],
      "gps": {
        "lat": 49.224075299459614,
        "lon": 1.1769177238429835
      }
    },
    {
      "station": "E381126501",
      "label": "Bousbecque",
      "cours": "Lys",
      "commune": "59098",
      "evenement": [],
      "gps": {
        "lat": 50.775864391041026,
        "lon": 3.07379561839313
      }
    },
    {
      "station": "J709063002",
      "label": "Cesson-Sévigné [Pont Briant]",
      "cours": "Vilaine",
      "commune": "35051",
      "evenement": [],
      "gps": {
        "lat": 48.12370697186764,
        "lon": -1.5637493986757462
      }
    },
    {
      "station": "Y321001001",
      "label": "Montpellier [Garigliano]",
      "cours": "Lez",
      "commune": "34172",
      "evenement": [],
      "gps": {
        "lat": 43.618769804122614,
        "lon": 3.8967318689103423
      }
    },
    {
      "station": "U132401001",
      "label": "Plombières-les-Dijon",
      "cours": "Ouche",
      "commune": "21485",
      "evenement": [],
      "gps": {
        "lat": 47.332536182920364,
        "lon": 4.980948456957807
      }
    },
    {
      "station": "V163002002",
      "label": "Lagnieu [DREAL Rhône Alpes]",
      "cours": "Rhône",
      "commune": "01202",
      "evenement": {
        "DescEvenement": "Les débits sont publiés à partir de 158m3/s (hauteur > 0.20m).",
        "DtEvenement": "2017-02-28 14:30:31"
      },
      "gps": {
        "lat": 45.88088838299317,
        "lon": 5.340233187454063
      }
    },
    {
      "station": "F700000103",
      "label": "Paris [Austerlitz - Station ultrason]",
      "cours": "Seine",
      "commune": "75056",
      "evenement": [],
      "gps": {
        "lat": 48.844689579677976,
        "lon": 2.365510635426925
      }
    },
    {
      "station": "M530001010",
      "label": "Montjean",
      "cours": "Loire",
      "commune": "49212",
      "evenement": [],
      "gps": {
        "lat": 47.39230510140693,
        "lon": -0.861211184981625
      }
    },
    {
      "station": "O200001001",
      "label": "Portet",
      "cours": "Garonne",
      "commune": "31433",
      "evenement": [],
      "gps": {
        "lat": 43.526472706557456,
        "lon": 1.415129716580194
      }
    },
    {
      "station": "O919001001",
      "label": "La Réole",
      "cours": "Garonne",
      "commune": "33352",
      "evenement": {
        "DescEvenement": "Station de La Réole: les hauteurs affichées sur le site sont données selon une référence altimétrique locale propre à la station de mesure. Pour obtenir la hauteur rapportée au nivellement général de la France (NGF IGN69), ajoutez 6,23 à la valeur lue.",
        "DtEvenement": "2017-02-28 14:30:31"
      },
      "gps": {
        "lat": 44.57765960180708,
        "lon": -0.036048421867029744
      }
    },
    {
      "station": "L250161001",
      "label": "Dissay",
      "cours": "Clain",
      "commune": "86095",
      "evenement": [],
      "gps": {
        "lat": 46.702576572590004,
        "lon": 0.4227290823793132
      }
    },
    {
      "station": "I362101001",
      "label": "May-sur-Orne",
      "cours": "Orne",
      "commune": "14408",
      "evenement": [],
      "gps": {
        "lat": 49.1096254657618,
        "lon": -0.3863684642825236
      }
    },
    {
      "station": "U251542001",
      "label": "Vaire-Arcier",
      "cours": "source d'Arcier",
      "commune": "25575",
      "evenement": [],
      "gps": {
        "lat": 47.26879521586723,
        "lon": 6.11899675554058
      }
    },
    {
      "station": "E640091001",
      "label": "Lamotte-Brebière",
      "cours": "Somme canalisée",
      "commune": "80461",
      "evenement": [],
      "gps": {
        "lat": 49.88426840633553,
        "lon": 2.396664264269847
      }
    },
    {
      "station": "H520101003",
      "label": "Châlons-en-Champagne",
      "cours": "Marne",
      "commune": "51108",
      "evenement": [],
      "gps": {
        "lat": 48.95095128066497,
        "lon": 4.353723063341069
      }
    },
    {
      "station": "K322201001",
      "label": "Pontgibaud",
      "cours": "Sioule",
      "commune": "63285",
      "evenement": [],
      "gps": {
        "lat": 45.83323730672589,
        "lon": 2.8490482062724505
      }
    },
    {
      "station": "E381126501",
      "label": "Bousbecque",
      "cours": "Lys",
      "commune": "59098",
      "evenement": [],
      "gps": {
        "lat": 50.775864391041026,
        "lon": 3.07379561839313
      }
    },
    {
      "station": "J709063002",
      "label": "Cesson-Sévigné [Pont Briant]",
      "cours": "Vilaine",
      "commune": "35051",
      "evenement": [],
      "gps": {
        "lat": 48.12370697186764,
        "lon": -1.5637493986757462
      }
    },
    {
      "station": "A061005051",
      "label": "Strasbourg [sémaphore nord] [Limnimètre]",
      "cours": "Rhin",
      "commune": "67482",
      "evenement": {
        "DescEvenement": "ATTENTION, en raison des conditions locales*, les débits indiqués ne sont fiables que pour des valeurs supérieures à 1700 m3/s. Des valeurs erronées peuvent être affichées pour des débits plus faibles. * se reporter à la Banque Hydro pour plus de précisions (onglet 'infos station' puis 'FICHE STATION')",
        "DtEvenement": "2017-03-02 10:40:31"
      },
      "gps": {
        "lat": 48.59254033692791,
        "lon": 7.802870978789727
      }
    },
    {
      "station": "L040061002",
      "label": "Limoges [Pont-Neuf]",
      "cours": "Vienne",
      "commune": "87085",
      "evenement": [],
      "gps": {
        "lat": 45.82564459174513,
        "lon": 1.2699518950681945
      }
    },
    {
      "station": "O200001001",
      "label": "Portet",
      "cours": "Garonne",
      "commune": "31433",
      "evenement": [],
      "gps": {
        "lat": 43.526472706557456,
        "lon": 1.415129716580194
      }
    },
    {
      "station": "H438021010",
      "label": "Louviers",
      "cours": "Eure",
      "commune": "27375",
      "evenement": [],
      "gps": {
        "lat": 49.224075299459614,
        "lon": 1.1769177238429835
      }
    },
    {
      "station": "U132401001",
      "label": "Plombières-les-Dijon",
      "cours": "Ouche",
      "commune": "21485",
      "evenement": [],
      "gps": {
        "lat": 47.332536182920364,
        "lon": 4.980948456957807
      }
    },
    {
      "station": "O919001001",
      "label": "La Réole",
      "cours": "Garonne",
      "commune": "33352",
      "evenement": {
        "DescEvenement": "Station de La Réole: les hauteurs affichées sur le site sont données selon une référence altimétrique locale propre à la station de mesure. Pour obtenir la hauteur rapportée au nivellement général de la France (NGF IGN69), ajoutez 6,23 à la valeur lue.",
        "DtEvenement": "2017-02-28 14:30:31"
      },
      "gps": {
        "lat": 44.57765960180708,
        "lon": -0.036048421867029744
      }
    },
    {
      "station": "V163002002",
      "label": "Lagnieu [DREAL Rhône Alpes]",
      "cours": "Rhône",
      "commune": "01202",
      "evenement": {
        "DescEvenement": "Les débits sont publiés à partir de 158m3/s (hauteur > 0.20m).",
        "DtEvenement": "2017-02-28 14:30:31"
      },
      "gps": {
        "lat": 45.88088838299317,
        "lon": 5.340233187454063
      }
    },
    {
      "station": "F700000103",
      "label": "Paris [Austerlitz - Station ultrason]",
      "cours": "Seine",
      "commune": "75056",
      "evenement": [],
      "gps": {
        "lat": 48.844689579677976,
        "lon": 2.365510635426925
      }
    },
    {
      "station": "K435001010",
      "label": "Orléans [Pont Royal]",
      "cours": "Loire",
      "commune": "45234",
      "evenement": {
        "DescEvenement": "Station de référence en crue, située au pont George V, dont les valeurs sont publiées dans le bulletin d&#039;information du SPC.\nIl n&#039;y a pas de concordance des hauteurs entre les 2 stations, Orléans Pont et Orléans Quai.\n",
        "DtEvenement": "2017-02-28 14:30:31"
      },
      "gps": {
        "lat": 47.89732382319809,
        "lon": 1.9047891133749535
      }
    },
    {
      "station": "Y321001001",
      "label": "Montpellier [Garigliano]",
      "cours": "Lez",
      "commune": "34172",
      "evenement": [],
      "gps": {
        "lat": 43.618769804122614,
        "lon": 3.8967318689103423
      }
    },
    {
      "station": "Y442404001",
      "label": "Aubagne [Le Charrel]",
      "cours": "Huveaune",
      "commune": "13005",
      "evenement": [],
      "gps": {
        "lat": 43.28953266359409,
        "lon": 5.556903221296799
      }
    },
    {
      "station": "M530001010",
      "label": "Montjean",
      "cours": "Loire",
      "commune": "49212",
      "evenement": [],
      "gps": {
        "lat": 47.39230510140693,
        "lon": -0.861211184981625
      }
    },
    {
      "station": "A743061001",
      "label": "Metz [pont des Morts]",
      "cours": "Moselle",
      "commune": "57463",
      "evenement": [],
      "gps": {
        "lat": 49.122321530831165,
        "lon": 6.167185612157847
      }
    },
    {
      "station": "L250161001",
      "label": "Dissay",
      "cours": "Clain",
      "commune": "86095",
      "evenement": [],
      "gps": {
        "lat": 46.702576572590004,
        "lon": 0.4227290823793132
      }
    },
    {
      "station": "O919001001",
      "label": "La Réole",
      "cours": "Garonne",
      "commune": "33352",
      "evenement": {
        "DescEvenement": "Station de La Réole: les hauteurs affichées sur le site sont données selon une référence altimétrique locale propre à la station de mesure. Pour obtenir la hauteur rapportée au nivellement général de la France (NGF IGN69), ajoutez 6,23 à la valeur lue.",
        "DtEvenement": "2017-02-28 14:30:31"
      },
      "gps": {
        "lat": 44.57765960180708,
        "lon": -0.036048421867029744
      }
    },
    {
      "station": "I362101001",
      "label": "May-sur-Orne",
      "cours": "Orne",
      "commune": "14408",
      "evenement": [],
      "gps": {
        "lat": 49.1096254657618,
        "lon": -0.3863684642825236
      }
    },
    {
      "station": "E640091001",
      "label": "Lamotte-Brebière",
      "cours": "Somme canalisée",
      "commune": "80461",
      "evenement": [],
      "gps": {
        "lat": 49.88426840633553,
        "lon": 2.396664264269847
      }
    },
    {
      "station": "U251542001",
      "label": "Vaire-Arcier",
      "cours": "source d'Arcier",
      "commune": "25575",
      "evenement": [],
      "gps": {
        "lat": 47.26879521586723,
        "lon": 6.11899675554058
      }
    },
    {
      "station": "U132401001",
      "label": "Plombières-les-Dijon",
      "cours": "Ouche",
      "commune": "21485",
      "evenement": [],
      "gps": {
        "lat": 47.332536182920364,
        "lon": 4.980948456957807
      }
    },
    {
      "station": "K322201001",
      "label": "Pontgibaud",
      "cours": "Sioule",
      "commune": "63285",
      "evenement": [],
      "gps": {
        "lat": 45.83323730672589,
        "lon": 2.8490482062724505
      }
    },
    {
      "station": "K435001010",
      "label": "Orléans [Pont Royal]",
      "cours": "Loire",
      "commune": "45234",
      "evenement": {
        "DescEvenement": "Station de référence en crue, située au pont George V, dont les valeurs sont publiées dans le bulletin d&#039;information du SPC.\nIl n&#039;y a pas de concordance des hauteurs entre les 2 stations, Orléans Pont et Orléans Quai.\n",
        "DtEvenement": "2017-02-28 14:30:31"
      },
      "gps": {
        "lat": 47.89732382319809,
        "lon": 1.9047891133749535
      }
    },
    {
      "station": "Y321001001",
      "label": "Montpellier [Garigliano]",
      "cours": "Lez",
      "commune": "34172",
      "evenement": [],
      "gps": {
        "lat": 43.618769804122614,
        "lon": 3.8967318689103423
      }
    },
    {
      "station": "E381126501",
      "label": "Bousbecque",
      "cours": "Lys",
      "commune": "59098",
      "evenement": [],
      "gps": {
        "lat": 50.775864391041026,
        "lon": 3.07379561839313
      }
    },
    {
      "station": "A743061001",
      "label": "Metz [pont des Morts]",
      "cours": "Moselle",
      "commune": "57463",
      "evenement": [],
      "gps": {
        "lat": 49.122321530831165,
        "lon": 6.167185612157847
      }
    },
    {
      "station": "F700000103",
      "label": "Paris [Austerlitz - Station ultrason]",
      "cours": "Seine",
      "commune": "75056",
      "evenement": [],
      "gps": {
        "lat": 48.844689579677976,
        "lon": 2.365510635426925
      }
    },
    {
      "station": "M530001010",
      "label": "Montjean",
      "cours": "Loire",
      "commune": "49212",
      "evenement": [],
      "gps": {
        "lat": 47.39230510140693,
        "lon": -0.861211184981625
      }
    },
    {
      "station": "Y442404001",
      "label": "Aubagne [Le Charrel]",
      "cours": "Huveaune",
      "commune": "13005",
      "evenement": [],
      "gps": {
        "lat": 43.28953266359409,
        "lon": 5.556903221296799
      }
    },
    {
      "station": "L040061002",
      "label": "Limoges [Pont-Neuf]",
      "cours": "Vienne",
      "commune": "87085",
      "evenement": [],
      "gps": {
        "lat": 45.82564459174513,
        "lon": 1.2699518950681945
      }
    },
    {
      "station": "H520101003",
      "label": "Châlons-en-Champagne",
      "cours": "Marne",
      "commune": "51108",
      "evenement": [],
      "gps": {
        "lat": 48.95095128066497,
        "lon": 4.353723063341069
      }
    },
    {
      "station": "V163002002",
      "label": "Lagnieu [DREAL Rhône Alpes]",
      "cours": "Rhône",
      "commune": "01202",
      "evenement": {
        "DescEvenement": "Les débits sont publiés à partir de 158m3/s (hauteur > 0.20m).",
        "DtEvenement": "2017-02-28 14:30:31"
      },
      "gps": {
        "lat": 45.88088838299317,
        "lon": 5.340233187454063
      }
    },
    {
      "station": "J709063002",
      "label": "Cesson-Sévigné [Pont Briant]",
      "cours": "Vilaine",
      "commune": "35051",
      "evenement": [],
      "gps": {
        "lat": 48.12370697186764,
        "lon": -1.5637493986757462
      }
    },
    {
      "station": "A061005051",
      "label": "Strasbourg [sémaphore nord] [Limnimètre]",
      "cours": "Rhin",
      "commune": "67482",
      "evenement": {
        "DescEvenement": "ATTENTION, en raison des conditions locales*, les débits indiqués ne sont fiables que pour des valeurs supérieures à 1700 m3/s. Des valeurs erronées peuvent être affichées pour des débits plus faibles. * se reporter à la Banque Hydro pour plus de précisions (onglet 'infos station' puis 'FICHE STATION')",
        "DtEvenement": "2017-03-02 10:40:31"
      },
      "gps": {
        "lat": 48.59254033692791,
        "lon": 7.802870978789727
      }
    },
    {
      "station": "H438021010",
      "label": "Louviers",
      "cours": "Eure",
      "commune": "27375",
      "evenement": [],
      "gps": {
        "lat": 49.224075299459614,
        "lon": 1.1769177238429835
      }
    },
    {
      "station": "O200001001",
      "label": "Portet",
      "cours": "Garonne",
      "commune": "31433",
      "evenement": [],
      "gps": {
        "lat": 43.526472706557456,
        "lon": 1.415129716580194
      }
    },
    {
      "station": "L250161001",
      "label": "Dissay",
      "cours": "Clain",
      "commune": "86095",
      "evenement": [],
      "gps": {
        "lat": 46.702576572590004,
        "lon": 0.4227290823793132
      }
    },
    {
      "station": "E640091001",
      "label": "Lamotte-Brebière",
      "cours": "Somme canalisée",
      "commune": "80461",
      "evenement": [],
      "gps": {
        "lat": 49.88426840633553,
        "lon": 2.396664264269847
      }
    },
    {
      "station": "U251542001",
      "label": "Vaire-Arcier",
      "cours": "source d'Arcier",
      "commune": "25575",
      "evenement": [],
      "gps": {
        "lat": 47.26879521586723,
        "lon": 6.11899675554058
      }
    },
    {
      "station": "I362101001",
      "label": "May-sur-Orne",
      "cours": "Orne",
      "commune": "14408",
      "evenement": [],
      "gps": {
        "lat": 49.1096254657618,
        "lon": -0.3863684642825236
      }
    },
    {
      "station": "Y442404001",
      "label": "Aubagne [Le Charrel]",
      "cours": "Huveaune",
      "commune": "13005",
      "evenement": [],
      "gps": {
        "lat": 43.28953266359409,
        "lon": 5.556903221296799
      }
    },
    {
      "station": "Y321001001",
      "label": "Montpellier [Garigliano]",
      "cours": "Lez",
      "commune": "34172",
      "evenement": [],
      "gps": {
        "lat": 43.618769804122614,
        "lon": 3.8967318689103423
      }
    },
    {
      "station": "O919001001",
      "label": "La Réole",
      "cours": "Garonne",
      "commune": "33352",
      "evenement": {
        "DescEvenement": "Station de La Réole: les hauteurs affichées sur le site sont données selon une référence altimétrique locale propre à la station de mesure. Pour obtenir la hauteur rapportée au nivellement général de la France (NGF IGN69), ajoutez 6,23 à la valeur lue.",
        "DtEvenement": "2017-02-28 14:30:31"
      },
      "gps": {
        "lat": 44.57765960180708,
        "lon": -0.036048421867029744
      }
    },
    {
      "station": "U132401001",
      "label": "Plombières-les-Dijon",
      "cours": "Ouche",
      "commune": "21485",
      "evenement": [],
      "gps": {
        "lat": 47.332536182920364,
        "lon": 4.980948456957807
      }
    },
    {
      "station": "H520101003",
      "label": "Châlons-en-Champagne",
      "cours": "Marne",
      "commune": "51108",
      "evenement": [],
      "gps": {
        "lat": 48.95095128066497,
        "lon": 4.353723063341069
      }
    },
    {
      "station": "L250161001",
      "label": "Dissay",
      "cours": "Clain",
      "commune": "86095",
      "evenement": [],
      "gps": {
        "lat": 46.702576572590004,
        "lon": 0.4227290823793132
      }
    },
    {
      "station": "E381126501",
      "label": "Bousbecque",
      "cours": "Lys",
      "commune": "59098",
      "evenement": [],
      "gps": {
        "lat": 50.775864391041026,
        "lon": 3.07379561839313
      }
    },
    {
      "station": "A061005051",
      "label": "Strasbourg [sémaphore nord] [Limnimètre]",
      "cours": "Rhin",
      "commune": "67482",
      "evenement": {
        "DescEvenement": "ATTENTION, en raison des conditions locales*, les débits indiqués ne sont fiables que pour des valeurs supérieures à 1700 m3/s. Des valeurs erronées peuvent être affichées pour des débits plus faibles. * se reporter à la Banque Hydro pour plus de précisions (onglet 'infos station' puis 'FICHE STATION')",
        "DtEvenement": "2017-03-02 10:40:31"
      },
      "gps": {
        "lat": 48.59254033692791,
        "lon": 7.802870978789727
      }
    },
    {
      "station": "K322201001",
      "label": "Pontgibaud",
      "cours": "Sioule",
      "commune": "63285",
      "evenement": [],
      "gps": {
        "lat": 45.83323730672589,
        "lon": 2.8490482062724505
      }
    },
    {
      "station": "A743061001",
      "label": "Metz [pont des Morts]",
      "cours": "Moselle",
      "commune": "57463",
      "evenement": [],
      "gps": {
        "lat": 49.122321530831165,
        "lon": 6.167185612157847
      }
    },
    {
      "station": "F700000103",
      "label": "Paris [Austerlitz - Station ultrason]",
      "cours": "Seine",
      "commune": "75056",
      "evenement": [],
      "gps": {
        "lat": 48.844689579677976,
        "lon": 2.365510635426925
      }
    },
    {
      "station": "H438021010",
      "label": "Louviers",
      "cours": "Eure",
      "commune": "27375",
      "evenement": [],
      "gps": {
        "lat": 49.224075299459614,
        "lon": 1.1769177238429835
      }
    },
    {
      "station": "M530001010",
      "label": "Montjean",
      "cours": "Loire",
      "commune": "49212",
      "evenement": [],
      "gps": {
        "lat": 47.39230510140693,
        "lon": -0.861211184981625
      }
    },
    {
      "station": "V163002002",
      "label": "Lagnieu [DREAL Rhône Alpes]",
      "cours": "Rhône",
      "commune": "01202",
      "evenement": {
        "DescEvenement": "Les débits sont publiés à partir de 158m3/s (hauteur > 0.20m).",
        "DtEvenement": "2017-02-28 14:30:31"
      },
      "gps": {
        "lat": 45.88088838299317,
        "lon": 5.340233187454063
      }
    },
    {
      "station": "K435001010",
      "label": "Orléans [Pont Royal]",
      "cours": "Loire",
      "commune": "45234",
      "evenement": {
        "DescEvenement": "Station de référence en crue, située au pont George V, dont les valeurs sont publiées dans le bulletin d&#039;information du SPC.\nIl n&#039;y a pas de concordance des hauteurs entre les 2 stations, Orléans Pont et Orléans Quai.\n",
        "DtEvenement": "2017-02-28 14:30:31"
      },
      "gps": {
        "lat": 47.89732382319809,
        "lon": 1.9047891133749535
      }
    },
    {
      "station": "O200001001",
      "label": "Portet",
      "cours": "Garonne",
      "commune": "31433",
      "evenement": [],
      "gps": {
        "lat": 43.526472706557456,
        "lon": 1.415129716580194
      }
    },
    {
      "station": "L040061002",
      "label": "Limoges [Pont-Neuf]",
      "cours": "Vienne",
      "commune": "87085",
      "evenement": [],
      "gps": {
        "lat": 45.82564459174513,
        "lon": 1.2699518950681945
      }
    },
    {
      "station": "J709063002",
      "label": "Cesson-Sévigné [Pont Briant]",
      "cours": "Vilaine",
      "commune": "35051",
      "evenement": [],
      "gps": {
        "lat": 48.12370697186764,
        "lon": -1.5637493986757462
      }
    },
    {
      "station": "U251542001",
      "label": "Vaire-Arcier",
      "cours": "source d'Arcier",
      "commune": "25575",
      "evenement": [],
      "gps": {
        "lat": 47.26879521586723,
        "lon": 6.11899675554058
      }
    },
    {
      "station": "O919001001",
      "label": "La Réole",
      "cours": "Garonne",
      "commune": "33352",
      "evenement": {
        "DescEvenement": "Station de La Réole: les hauteurs affichées sur le site sont données selon une référence altimétrique locale propre à la station de mesure. Pour obtenir la hauteur rapportée au nivellement général de la France (NGF IGN69), ajoutez 6,23 à la valeur lue.",
        "DtEvenement": "2017-02-28 14:30:31"
      },
      "gps": {
        "lat": 44.57765960180708,
        "lon": -0.036048421867029744
      }
    },
    {
      "station": "E640091001",
      "label": "Lamotte-Brebière",
      "cours": "Somme canalisée",
      "commune": "80461",
      "evenement": [],
      "gps": {
        "lat": 49.88426840633553,
        "lon": 2.396664264269847
      }
    },
    {
      "station": "I362101001",
      "label": "May-sur-Orne",
      "cours": "Orne",
      "commune": "14408",
      "evenement": [],
      "gps": {
        "lat": 49.1096254657618,
        "lon": -0.3863684642825236
      }
    },
    {
      "station": "E381126501",
      "label": "Bousbecque",
      "cours": "Lys",
      "commune": "59098",
      "evenement": [],
      "gps": {
        "lat": 50.775864391041026,
        "lon": 3.07379561839313
      }
    },
    {
      "station": "U132401001",
      "label": "Plombières-les-Dijon",
      "cours": "Ouche",
      "commune": "21485",
      "evenement": [],
      "gps": {
        "lat": 47.332536182920364,
        "lon": 4.980948456957807
      }
    },
    {
      "station": "H520101003",
      "label": "Châlons-en-Champagne",
      "cours": "Marne",
      "commune": "51108",
      "evenement": [],
      "gps": {
        "lat": 48.95095128066497,
        "lon": 4.353723063341069
      }
    },
    {
      "station": "V163002002",
      "label": "Lagnieu [DREAL Rhône Alpes]",
      "cours": "Rhône",
      "commune": "01202",
      "evenement": {
        "DescEvenement": "Les débits sont publiés à partir de 158m3/s (hauteur > 0.20m).",
        "DtEvenement": "2017-02-28 14:30:31"
      },
      "gps": {
        "lat": 45.88088838299317,
        "lon": 5.340233187454063
      }
    },
    {
      "station": "K322201001",
      "label": "Pontgibaud",
      "cours": "Sioule",
      "commune": "63285",
      "evenement": [],
      "gps": {
        "lat": 45.83323730672589,
        "lon": 2.8490482062724505
      }
    },
    {
      "station": "L040061002",
      "label": "Limoges [Pont-Neuf]",
      "cours": "Vienne",
      "commune": "87085",
      "evenement": [],
      "gps": {
        "lat": 45.82564459174513,
        "lon": 1.2699518950681945
      }
    },
    {
      "station": "Y442404001",
      "label": "Aubagne [Le Charrel]",
      "cours": "Huveaune",
      "commune": "13005",
      "evenement": [],
      "gps": {
        "lat": 43.28953266359409,
        "lon": 5.556903221296799
      }
    },
    {
      "station": "A743061001",
      "label": "Metz [pont des Morts]",
      "cours": "Moselle",
      "commune": "57463",
      "evenement": [],
      "gps": {
        "lat": 49.122321530831165,
        "lon": 6.167185612157847
      }
    },
    {
      "station": "L250161001",
      "label": "Dissay",
      "cours": "Clain",
      "commune": "86095",
      "evenement": [],
      "gps": {
        "lat": 46.702576572590004,
        "lon": 0.4227290823793132
      }
    },
    {
      "station": "F700000103",
      "label": "Paris [Austerlitz - Station ultrason]",
      "cours": "Seine",
      "commune": "75056",
      "evenement": [],
      "gps": {
        "lat": 48.844689579677976,
        "lon": 2.365510635426925
      }
    },
    {
      "station": "Y321001001",
      "label": "Montpellier [Garigliano]",
      "cours": "Lez",
      "commune": "34172",
      "evenement": [],
      "gps": {
        "lat": 43.618769804122614,
        "lon": 3.8967318689103423
      }
    },
    {
      "station": "M530001010",
      "label": "Montjean",
      "cours": "Loire",
      "commune": "49212",
      "evenement": [],
      "gps": {
        "lat": 47.39230510140693,
        "lon": -0.861211184981625
      }
    },
    {
      "station": "K435001010",
      "label": "Orléans [Pont Royal]",
      "cours": "Loire",
      "commune": "45234",
      "evenement": {
        "DescEvenement": "Station de référence en crue, située au pont George V, dont les valeurs sont publiées dans le bulletin d&#039;information du SPC.\nIl n&#039;y a pas de concordance des hauteurs entre les 2 stations, Orléans Pont et Orléans Quai.\n",
        "DtEvenement": "2017-02-28 14:30:31"
      },
      "gps": {
        "lat": 47.89732382319809,
        "lon": 1.9047891133749535
      }
    },
    {
      "station": "J709063002",
      "label": "Cesson-Sévigné [Pont Briant]",
      "cours": "Vilaine",
      "commune": "35051",
      "evenement": [],
      "gps": {
        "lat": 48.12370697186764,
        "lon": -1.5637493986757462
      }
    },
    {
      "station": "A061005051",
      "label": "Strasbourg [sémaphore nord] [Limnimètre]",
      "cours": "Rhin",
      "commune": "67482",
      "evenement": {
        "DescEvenement": "ATTENTION, en raison des conditions locales*, les débits indiqués ne sont fiables que pour des valeurs supérieures à 1700 m3/s. Des valeurs erronées peuvent être affichées pour des débits plus faibles. * se reporter à la Banque Hydro pour plus de précisions (onglet 'infos station' puis 'FICHE STATION')",
        "DtEvenement": "2017-03-02 10:40:31"
      },
      "gps": {
        "lat": 48.59254033692791,
        "lon": 7.802870978789727
      }
    },
    {
      "station": "O200001001",
      "label": "Portet",
      "cours": "Garonne",
      "commune": "31433",
      "evenement": [],
      "gps": {
        "lat": 43.526472706557456,
        "lon": 1.415129716580194
      }
    },
    {
      "station": "H438021010",
      "label": "Louviers",
      "cours": "Eure",
      "commune": "27375",
      "evenement": [],
      "gps": {
        "lat": 49.224075299459614,
        "lon": 1.1769177238429835
      }
    },
    {
      "station": "K322201001",
      "label": "Pontgibaud",
      "cours": "Sioule",
      "commune": "63285",
      "evenement": [],
      "gps": {
        "lat": 45.83323730672589,
        "lon": 2.8490482062724505
      }
    },
    {
      "station": "E640091001",
      "label": "Lamotte-Brebière",
      "cours": "Somme canalisée",
      "commune": "80461",
      "evenement": [],
      "gps": {
        "lat": 49.88426840633553,
        "lon": 2.396664264269847
      }
    },
    {
      "station": "O919001001",
      "label": "La Réole",
      "cours": "Garonne",
      "commune": "33352",
      "evenement": {
        "DescEvenement": "Station de La Réole: les hauteurs affichées sur le site sont données selon une référence altimétrique locale propre à la station de mesure. Pour obtenir la hauteur rapportée au nivellement général de la France (NGF IGN69), ajoutez 6,23 à la valeur lue.",
        "DtEvenement": "2017-02-28 14:30:31"
      },
      "gps": {
        "lat": 44.57765960180708,
        "lon": -0.036048421867029744
      }
    },
    {
      "station": "E381126501",
      "label": "Bousbecque",
      "cours": "Lys",
      "commune": "59098",
      "evenement": [],
      "gps": {
        "lat": 50.775864391041026,
        "lon": 3.07379561839313
      }
    },
    {
      "station": "U132401001",
      "label": "Plombières-les-Dijon",
      "cours": "Ouche",
      "commune": "21485",
      "evenement": [],
      "gps": {
        "lat": 47.332536182920364,
        "lon": 4.980948456957807
      }
    },
    {
      "station": "I362101001",
      "label": "May-sur-Orne",
      "cours": "Orne",
      "commune": "14408",
      "evenement": [],
      "gps": {
        "lat": 49.1096254657618,
        "lon": -0.3863684642825236
      }
    },
    {
      "station": "H520101003",
      "label": "Châlons-en-Champagne",
      "cours": "Marne",
      "commune": "51108",
      "evenement": [],
      "gps": {
        "lat": 48.95095128066497,
        "lon": 4.353723063341069
      }
    },
    {
      "station": "Y442404001",
      "label": "Aubagne [Le Charrel]",
      "cours": "Huveaune",
      "commune": "13005",
      "evenement": [],
      "gps": {
        "lat": 43.28953266359409,
        "lon": 5.556903221296799
      }
    },
    {
      "station": "M530001010",
      "label": "Montjean",
      "cours": "Loire",
      "commune": "49212",
      "evenement": [],
      "gps": {
        "lat": 47.39230510140693,
        "lon": -0.861211184981625
      }
    },
    {
      "station": "L040061002",
      "label": "Limoges [Pont-Neuf]",
      "cours": "Vienne",
      "commune": "87085",
      "evenement": [],
      "gps": {
        "lat": 45.82564459174513,
        "lon": 1.2699518950681945
      }
    },
    {
      "station": "U251542001",
      "label": "Vaire-Arcier",
      "cours": "source d'Arcier",
      "commune": "25575",
      "evenement": [],
      "gps": {
        "lat": 47.26879521586723,
        "lon": 6.11899675554058
      }
    },
    {
      "station": "V163002002",
      "label": "Lagnieu [DREAL Rhône Alpes]",
      "cours": "Rhône",
      "commune": "01202",
      "evenement": {
        "DescEvenement": "Les débits sont publiés à partir de 158m3/s (hauteur > 0.20m).",
        "DtEvenement": "2017-02-28 14:30:31"
      },
      "gps": {
        "lat": 45.88088838299317,
        "lon": 5.340233187454063
      }
    },
    {
      "station": "J709063002",
      "label": "Cesson-Sévigné [Pont Briant]",
      "cours": "Vilaine",
      "commune": "35051",
      "evenement": [],
      "gps": {
        "lat": 48.12370697186764,
        "lon": -1.5637493986757462
      }
    },
    {
      "station": "A743061001",
      "label": "Metz [pont des Morts]",
      "cours": "Moselle",
      "commune": "57463",
      "evenement": [],
      "gps": {
        "lat": 49.122321530831165,
        "lon": 6.167185612157847
      }
    },
    {
      "station": "F700000103",
      "label": "Paris [Austerlitz - Station ultrason]",
      "cours": "Seine",
      "commune": "75056",
      "evenement": [],
      "gps": {
        "lat": 48.844689579677976,
        "lon": 2.365510635426925
      }
    },
    {
      "station": "Y321001001",
      "label": "Montpellier [Garigliano]",
      "cours": "Lez",
      "commune": "34172",
      "evenement": [],
      "gps": {
        "lat": 43.618769804122614,
        "lon": 3.8967318689103423
      }
    },
    {
      "station": "L250161001",
      "label": "Dissay",
      "cours": "Clain",
      "commune": "86095",
      "evenement": [],
      "gps": {
        "lat": 46.702576572590004,
        "lon": 0.4227290823793132
      }
    },
    {
      "station": "O200001001",
      "label": "Portet",
      "cours": "Garonne",
      "commune": "31433",
      "evenement": [],
      "gps": {
        "lat": 43.526472706557456,
        "lon": 1.415129716580194
      }
    },
    {
      "station": "K435001010",
      "label": "Orléans [Pont Royal]",
      "cours": "Loire",
      "commune": "45234",
      "evenement": {
        "DescEvenement": "Station de référence en crue, située au pont George V, dont les valeurs sont publiées dans le bulletin d&#039;information du SPC.\nIl n&#039;y a pas de concordance des hauteurs entre les 2 stations, Orléans Pont et Orléans Quai.\n",
        "DtEvenement": "2017-02-28 14:30:31"
      },
      "gps": {
        "lat": 47.89732382319809,
        "lon": 1.9047891133749535
      }
    },
    {
      "station": "H438021010",
      "label": "Louviers",
      "cours": "Eure",
      "commune": "27375",
      "evenement": [],
      "gps": {
        "lat": 49.224075299459614,
        "lon": 1.1769177238429835
      }
    },
    {
      "station": "A061005051",
      "label": "Strasbourg [sémaphore nord] [Limnimètre]",
      "cours": "Rhin",
      "commune": "67482",
      "evenement": {
        "DescEvenement": "ATTENTION, en raison des conditions locales*, les débits indiqués ne sont fiables que pour des valeurs supérieures à 1700 m3/s. Des valeurs erronées peuvent être affichées pour des débits plus faibles. * se reporter à la Banque Hydro pour plus de précisions (onglet 'infos station' puis 'FICHE STATION')",
        "DtEvenement": "2017-03-02 10:40:31"
      },
      "gps": {
        "lat": 48.59254033692791,
        "lon": 7.802870978789727
      }
    },
    {
      "station": "U251542001",
      "label": "Vaire-Arcier",
      "cours": "source d'Arcier",
      "commune": "25575",
      "evenement": [],
      "gps": {
        "lat": 47.26879521586723,
        "lon": 6.11899675554058
      }
    },
    {
      "station": "A061005051",
      "label": "Strasbourg [sémaphore nord] [Limnimètre]",
      "cours": "Rhin",
      "commune": "67482",
      "evenement": {
        "DescEvenement": "ATTENTION, en raison des conditions locales*, les débits indiqués ne sont fiables que pour des valeurs supérieures à 1700 m3/s. Des valeurs erronées peuvent être affichées pour des débits plus faibles. * se reporter à la Banque Hydro pour plus de précisions (onglet 'infos station' puis 'FICHE STATION')",
        "DtEvenement": "2017-03-02 10:40:31"
      },
      "gps": {
        "lat": 48.59254033692791,
        "lon": 7.802870978789727
      }
    },
    {
      "station": "K435001010",
      "label": "Orléans [Pont Royal]",
      "cours": "Loire",
      "commune": "45234",
      "evenement": {
        "DescEvenement": "Station de référence en crue, située au pont George V, dont les valeurs sont publiées dans le bulletin d&#039;information du SPC.\nIl n&#039;y a pas de concordance des hauteurs entre les 2 stations, Orléans Pont et Orléans Quai.\n",
        "DtEvenement": "2017-02-28 14:30:31"
      },
      "gps": {
        "lat": 47.89732382319809,
        "lon": 1.9047891133749535
      }
    },
    {
      "station": "F700000103",
      "label": "Paris [Austerlitz - Station ultrason]",
      "cours": "Seine",
      "commune": "75056",
      "evenement": [],
      "gps": {
        "lat": 48.844689579677976,
        "lon": 2.365510635426925
      }
    },
    {
      "station": "Y321001001",
      "label": "Montpellier [Garigliano]",
      "cours": "Lez",
      "commune": "34172",
      "evenement": [],
      "gps": {
        "lat": 43.618769804122614,
        "lon": 3.8967318689103423
      }
    },
    {
      "station": "O200001001",
      "label": "Portet",
      "cours": "Garonne",
      "commune": "31433",
      "evenement": [],
      "gps": {
        "lat": 43.526472706557456,
        "lon": 1.415129716580194
      }
    },
    {
      "station": "E640091001",
      "label": "Lamotte-Brebière",
      "cours": "Somme canalisée",
      "commune": "80461",
      "evenement": [],
      "gps": {
        "lat": 49.88426840633553,
        "lon": 2.396664264269847
      }
    },
    {
      "station": "E381126501",
      "label": "Bousbecque",
      "cours": "Lys",
      "commune": "59098",
      "evenement": [],
      "gps": {
        "lat": 50.775864391041026,
        "lon": 3.07379561839313
      }
    },
    {
      "station": "L040061002",
      "label": "Limoges [Pont-Neuf]",
      "cours": "Vienne",
      "commune": "87085",
      "evenement": [],
      "gps": {
        "lat": 45.82564459174513,
        "lon": 1.2699518950681945
      }
    },
    {
      "station": "A743061001",
      "label": "Metz [pont des Morts]",
      "cours": "Moselle",
      "commune": "57463",
      "evenement": [],
      "gps": {
        "lat": 49.122321530831165,
        "lon": 6.167185612157847
      }
    },
    {
      "station": "Y442404001",
      "label": "Aubagne [Le Charrel]",
      "cours": "Huveaune",
      "commune": "13005",
      "evenement": [],
      "gps": {
        "lat": 43.28953266359409,
        "lon": 5.556903221296799
      }
    },
    {
      "station": "U132401001",
      "label": "Plombières-les-Dijon",
      "cours": "Ouche",
      "commune": "21485",
      "evenement": [],
      "gps": {
        "lat": 47.332536182920364,
        "lon": 4.980948456957807
      }
    },
    {
      "station": "K322201001",
      "label": "Pontgibaud",
      "cours": "Sioule",
      "commune": "63285",
      "evenement": [],
      "gps": {
        "lat": 45.83323730672589,
        "lon": 2.8490482062724505
      }
    },
    {
      "station": "L250161001",
      "label": "Dissay",
      "cours": "Clain",
      "commune": "86095",
      "evenement": [],
      "gps": {
        "lat": 46.702576572590004,
        "lon": 0.4227290823793132
      }
    },
    {
      "station": "O919001001",
      "label": "La Réole",
      "cours": "Garonne",
      "commune": "33352",
      "evenement": {
        "DescEvenement": "Station de La Réole: les hauteurs affichées sur le site sont données selon une référence altimétrique locale propre à la station de mesure. Pour obtenir la hauteur rapportée au nivellement général de la France (NGF IGN69), ajoutez 6,23 à la valeur lue.",
        "DtEvenement": "2017-02-28 14:30:31"
      },
      "gps": {
        "lat": 44.57765960180708,
        "lon": -0.036048421867029744
      }
    },
    {
      "station": "J709063002",
      "label": "Cesson-Sévigné [Pont Briant]",
      "cours": "Vilaine",
      "commune": "35051",
      "evenement": [],
      "gps": {
        "lat": 48.12370697186764,
        "lon": -1.5637493986757462
      }
    },
    {
      "station": "H520101003",
      "label": "Châlons-en-Champagne",
      "cours": "Marne",
      "commune": "51108",
      "evenement": [],
      "gps": {
        "lat": 48.95095128066497,
        "lon": 4.353723063341069
      }
    },
    {
      "station": "V163002002",
      "label": "Lagnieu [DREAL Rhône Alpes]",
      "cours": "Rhône",
      "commune": "01202",
      "evenement": {
        "DescEvenement": "Les débits sont publiés à partir de 158m3/s (hauteur > 0.20m).",
        "DtEvenement": "2017-02-28 14:30:31"
      },
      "gps": {
        "lat": 45.88088838299317,
        "lon": 5.340233187454063
      }
    },
    {
      "station": "H438021010",
      "label": "Louviers",
      "cours": "Eure",
      "commune": "27375",
      "evenement": [],
      "gps": {
        "lat": 49.224075299459614,
        "lon": 1.1769177238429835
      }
    },
    {
      "station": "M530001010",
      "label": "Montjean",
      "cours": "Loire",
      "commune": "49212",
      "evenement": [],
      "gps": {
        "lat": 47.39230510140693,
        "lon": -0.861211184981625
      }
    },
    {
      "station": "I362101001",
      "label": "May-sur-Orne",
      "cours": "Orne",
      "commune": "14408",
      "evenement": [],
      "gps": {
        "lat": 49.1096254657618,
        "lon": -0.3863684642825236
      }
    },
    {
      "station": "U251542001",
      "label": "Vaire-Arcier",
      "cours": "source d'Arcier",
      "commune": "25575",
      "evenement": [],
      "gps": {
        "lat": 47.26879521586723,
        "lon": 6.11899675554058
      }
    },
    {
      "station": "O919001001",
      "label": "La Réole",
      "cours": "Garonne",
      "commune": "33352",
      "evenement": {
        "DescEvenement": "Station de La Réole: les hauteurs affichées sur le site sont données selon une référence altimétrique locale propre à la station de mesure. Pour obtenir la hauteur rapportée au nivellement général de la France (NGF IGN69), ajoutez 6,23 à la valeur lue.",
        "DtEvenement": "2017-02-28 14:30:31"
      },
      "gps": {
        "lat": 44.57765960180708,
        "lon": -0.036048421867029744
      }
    },
    {
      "station": "E640091001",
      "label": "Lamotte-Brebière",
      "cours": "Somme canalisée",
      "commune": "80461",
      "evenement": [],
      "gps": {
        "lat": 49.88426840633553,
        "lon": 2.396664264269847
      }
    },
    {
      "station": "I362101001",
      "label": "May-sur-Orne",
      "cours": "Orne",
      "commune": "14408",
      "evenement": [],
      "gps": {
        "lat": 49.1096254657618,
        "lon": -0.3863684642825236
      }
    },
    {
      "station": "E381126501",
      "label": "Bousbecque",
      "cours": "Lys",
      "commune": "59098",
      "evenement": [],
      "gps": {
        "lat": 50.775864391041026,
        "lon": 3.07379561839313
      }
    },
    {
      "station": "U132401001",
      "label": "Plombières-les-Dijon",
      "cours": "Ouche",
      "commune": "21485",
      "evenement": [],
      "gps": {
        "lat": 47.332536182920364,
        "lon": 4.980948456957807
      }
    },
    {
      "station": "K322201001",
      "label": "Pontgibaud",
      "cours": "Sioule",
      "commune": "63285",
      "evenement": [],
      "gps": {
        "lat": 45.83323730672589,
        "lon": 2.8490482062724505
      }
    },
    {
      "station": "H520101003",
      "label": "Châlons-en-Champagne",
      "cours": "Marne",
      "commune": "51108",
      "evenement": [],
      "gps": {
        "lat": 48.95095128066497,
        "lon": 4.353723063341069
      }
    },
    {
      "station": "A743061001",
      "label": "Metz [pont des Morts]",
      "cours": "Moselle",
      "commune": "57463",
      "evenement": [],
      "gps": {
        "lat": 49.122321530831165,
        "lon": 6.167185612157847
      }
    },
    {
      "station": "Y321001001",
      "label": "Montpellier [Garigliano]",
      "cours": "Lez",
      "commune": "34172",
      "evenement": [],
      "gps": {
        "lat": 43.618769804122614,
        "lon": 3.8967318689103423
      }
    },
    {
      "station": "F700000103",
      "label": "Paris [Austerlitz - Station ultrason]",
      "cours": "Seine",
      "commune": "75056",
      "evenement": [],
      "gps": {
        "lat": 48.844689579677976,
        "lon": 2.365510635426925
      }
    },
    {
      "station": "L040061002",
      "label": "Limoges [Pont-Neuf]",
      "cours": "Vienne",
      "commune": "87085",
      "evenement": [],
      "gps": {
        "lat": 45.82564459174513,
        "lon": 1.2699518950681945
      }
    },
    {
      "station": "V163002002",
      "label": "Lagnieu [DREAL Rhône Alpes]",
      "cours": "Rhône",
      "commune": "01202",
      "evenement": {
        "DescEvenement": "Les débits sont publiés à partir de 158m3/s (hauteur > 0.20m).",
        "DtEvenement": "2017-02-28 14:30:31"
      },
      "gps": {
        "lat": 45.88088838299317,
        "lon": 5.340233187454063
      }
    },
    {
      "station": "Y442404001",
      "label": "Aubagne [Le Charrel]",
      "cours": "Huveaune",
      "commune": "13005",
      "evenement": [],
      "gps": {
        "lat": 43.28953266359409,
        "lon": 5.556903221296799
      }
    },
    {
      "station": "L250161001",
      "label": "Dissay",
      "cours": "Clain",
      "commune": "86095",
      "evenement": [],
      "gps": {
        "lat": 46.702576572590004,
        "lon": 0.4227290823793132
      }
    },
    {
      "station": "K435001010",
      "label": "Orléans [Pont Royal]",
      "cours": "Loire",
      "commune": "45234",
      "evenement": {
        "DescEvenement": "Station de référence en crue, située au pont George V, dont les valeurs sont publiées dans le bulletin d&#039;information du SPC.\nIl n&#039;y a pas de concordance des hauteurs entre les 2 stations, Orléans Pont et Orléans Quai.\n",
        "DtEvenement": "2017-02-28 14:30:31"
      },
      "gps": {
        "lat": 47.89732382319809,
        "lon": 1.9047891133749535
      }
    },
    {
      "station": "M530001010",
      "label": "Montjean",
      "cours": "Loire",
      "commune": "49212",
      "evenement": [],
      "gps": {
        "lat": 47.39230510140693,
        "lon": -0.861211184981625
      }
    },
    {
      "station": "J709063002",
      "label": "Cesson-Sévigné [Pont Briant]",
      "cours": "Vilaine",
      "commune": "35051",
      "evenement": [],
      "gps": {
        "lat": 48.12370697186764,
        "lon": -1.5637493986757462
      }
    },
    {
      "station": "A061005051",
      "label": "Strasbourg [sémaphore nord] [Limnimètre]",
      "cours": "Rhin",
      "commune": "67482",
      "evenement": {
        "DescEvenement": "ATTENTION, en raison des conditions locales*, les débits indiqués ne sont fiables que pour des valeurs supérieures à 1700 m3/s. Des valeurs erronées peuvent être affichées pour des débits plus faibles. * se reporter à la Banque Hydro pour plus de précisions (onglet 'infos station' puis 'FICHE STATION')",
        "DtEvenement": "2017-03-02 10:40:31"
      },
      "gps": {
        "lat": 48.59254033692791,
        "lon": 7.802870978789727
      }
    },
    {
      "station": "O200001001",
      "label": "Portet",
      "cours": "Garonne",
      "commune": "31433",
      "evenement": [],
      "gps": {
        "lat": 43.526472706557456,
        "lon": 1.415129716580194
      }
    },
    {
      "station": "H438021010",
      "label": "Louviers",
      "cours": "Eure",
      "commune": "27375",
      "evenement": [],
      "gps": {
        "lat": 49.224075299459614,
        "lon": 1.1769177238429835
      }
    },
    {
      "station": "E640091001",
      "label": "Lamotte-Brebière",
      "cours": "Somme canalisée",
      "commune": "80461",
      "evenement": [],
      "gps": {
        "lat": 49.88426840633553,
        "lon": 2.396664264269847
      }
    },
    {
      "station": "U251542001",
      "label": "Vaire-Arcier",
      "cours": "source d'Arcier",
      "commune": "25575",
      "evenement": [],
      "gps": {
        "lat": 47.26879521586723,
        "lon": 6.11899675554058
      }
    },
    {
      "station": "I362101001",
      "label": "May-sur-Orne",
      "cours": "Orne",
      "commune": "14408",
      "evenement": [],
      "gps": {
        "lat": 49.1096254657618,
        "lon": -0.3863684642825236
      }
    },
    {
      "station": "O919001001",
      "label": "La Réole",
      "cours": "Garonne",
      "commune": "33352",
      "evenement": {
        "DescEvenement": "Station de La Réole: les hauteurs affichées sur le site sont données selon une référence altimétrique locale propre à la station de mesure. Pour obtenir la hauteur rapportée au nivellement général de la France (NGF IGN69), ajoutez 6,23 à la valeur lue.",
        "DtEvenement": "2017-02-28 14:30:31"
      },
      "gps": {
        "lat": 44.57765960180708,
        "lon": -0.036048421867029744
      }
    },
    {
      "station": "L040061002",
      "label": "Limoges [Pont-Neuf]",
      "cours": "Vienne",
      "commune": "87085",
      "evenement": [],
      "gps": {
        "lat": 45.82564459174513,
        "lon": 1.2699518950681945
      }
    },
    {
      "station": "A743061001",
      "label": "Metz [pont des Morts]",
      "cours": "Moselle",
      "commune": "57463",
      "evenement": [],
      "gps": {
        "lat": 49.122321530831165,
        "lon": 6.167185612157847
      }
    },
    {
      "station": "A061005051",
      "label": "Strasbourg [sémaphore nord] [Limnimètre]",
      "cours": "Rhin",
      "commune": "67482",
      "evenement": {
        "DescEvenement": "ATTENTION, en raison des conditions locales*, les débits indiqués ne sont fiables que pour des valeurs supérieures à 1700 m3/s. Des valeurs erronées peuvent être affichées pour des débits plus faibles. * se reporter à la Banque Hydro pour plus de précisions (onglet 'infos station' puis 'FICHE STATION')",
        "DtEvenement": "2017-03-02 10:40:31"
      },
      "gps": {
        "lat": 48.59254033692791,
        "lon": 7.802870978789727
      }
    },
    {
      "station": "J709063002",
      "label": "Cesson-Sévigné [Pont Briant]",
      "cours": "Vilaine",
      "commune": "35051",
      "evenement": [],
      "gps": {
        "lat": 48.12370697186764,
        "lon": -1.5637493986757462
      }
    },
    {
      "station": "V163002002",
      "label": "Lagnieu [DREAL Rhône Alpes]",
      "cours": "Rhône",
      "commune": "01202",
      "evenement": {
        "DescEvenement": "Les débits sont publiés à partir de 158m3/s (hauteur > 0.20m).",
        "DtEvenement": "2017-02-28 14:30:31"
      },
      "gps": {
        "lat": 45.88088838299317,
        "lon": 5.340233187454063
      }
    },
    {
      "station": "M530001010",
      "label": "Montjean",
      "cours": "Loire",
      "commune": "49212",
      "evenement": [],
      "gps": {
        "lat": 47.39230510140693,
        "lon": -0.861211184981625
      }
    },
    {
      "station": "H520101003",
      "label": "Châlons-en-Champagne",
      "cours": "Marne",
      "commune": "51108",
      "evenement": [],
      "gps": {
        "lat": 48.95095128066497,
        "lon": 4.353723063341069
      }
    },
    {
      "station": "E381126501",
      "label": "Bousbecque",
      "cours": "Lys",
      "commune": "59098",
      "evenement": [],
      "gps": {
        "lat": 50.775864391041026,
        "lon": 3.07379561839313
      }
    },
    {
      "station": "Y442404001",
      "label": "Aubagne [Le Charrel]",
      "cours": "Huveaune",
      "commune": "13005",
      "evenement": [],
      "gps": {
        "lat": 43.28953266359409,
        "lon": 5.556903221296799
      }
    },
    {
      "station": "L250161001",
      "label": "Dissay",
      "cours": "Clain",
      "commune": "86095",
      "evenement": [],
      "gps": {
        "lat": 46.702576572590004,
        "lon": 0.4227290823793132
      }
    },
    {
      "station": "Y321001001",
      "label": "Montpellier [Garigliano]",
      "cours": "Lez",
      "commune": "34172",
      "evenement": [],
      "gps": {
        "lat": 43.618769804122614,
        "lon": 3.8967318689103423
      }
    },
    {
      "station": "F700000103",
      "label": "Paris [Austerlitz - Station ultrason]",
      "cours": "Seine",
      "commune": "75056",
      "evenement": [],
      "gps": {
        "lat": 48.844689579677976,
        "lon": 2.365510635426925
      }
    },
    {
      "station": "K435001010",
      "label": "Orléans [Pont Royal]",
      "cours": "Loire",
      "commune": "45234",
      "evenement": {
        "DescEvenement": "Station de référence en crue, située au pont George V, dont les valeurs sont publiées dans le bulletin d&#039;information du SPC.\nIl n&#039;y a pas de concordance des hauteurs entre les 2 stations, Orléans Pont et Orléans Quai.\n",
        "DtEvenement": "2017-02-28 14:30:31"
      },
      "gps": {
        "lat": 47.89732382319809,
        "lon": 1.9047891133749535
      }
    },
    {
      "station": "U132401001",
      "label": "Plombières-les-Dijon",
      "cours": "Ouche",
      "commune": "21485",
      "evenement": [],
      "gps": {
        "lat": 47.332536182920364,
        "lon": 4.980948456957807
      }
    },
    {
      "station": "K322201001",
      "label": "Pontgibaud",
      "cours": "Sioule",
      "commune": "63285",
      "evenement": [],
      "gps": {
        "lat": 45.83323730672589,
        "lon": 2.8490482062724505
      }
    },
    {
      "station": "O200001001",
      "label": "Portet",
      "cours": "Garonne",
      "commune": "31433",
      "evenement": [],
      "gps": {
        "lat": 43.526472706557456,
        "lon": 1.415129716580194
      }
    },
    {
      "station": "H438021010",
      "label": "Louviers",
      "cours": "Eure",
      "commune": "27375",
      "evenement": [],
      "gps": {
        "lat": 49.224075299459614,
        "lon": 1.1769177238429835
      }
    },
    {
      "station": "O919001001",
      "label": "La Réole",
      "cours": "Garonne",
      "commune": "33352",
      "evenement": {
        "DescEvenement": "Station de La Réole: les hauteurs affichées sur le site sont données selon une référence altimétrique locale propre à la station de mesure. Pour obtenir la hauteur rapportée au nivellement général de la France (NGF IGN69), ajoutez 6,23 à la valeur lue.",
        "DtEvenement": "2017-02-28 14:30:31"
      },
      "gps": {
        "lat": 44.57765960180708,
        "lon": -0.036048421867029744
      }
    },
    {
      "station": "E381126501",
      "label": "Bousbecque",
      "cours": "Lys",
      "commune": "59098",
      "evenement": [],
      "gps": {
        "lat": 50.775864391041026,
        "lon": 3.07379561839313
      }
    },
    {
      "station": "E640091001",
      "label": "Lamotte-Brebière",
      "cours": "Somme canalisée",
      "commune": "80461",
      "evenement": [],
      "gps": {
        "lat": 49.88426840633553,
        "lon": 2.396664264269847
      }
    },
    {
      "station": "L040061002",
      "label": "Limoges [Pont-Neuf]",
      "cours": "Vienne",
      "commune": "87085",
      "evenement": [],
      "gps": {
        "lat": 45.82564459174513,
        "lon": 1.2699518950681945
      }
    },
    {
      "station": "I362101001",
      "label": "May-sur-Orne",
      "cours": "Orne",
      "commune": "14408",
      "evenement": [],
      "gps": {
        "lat": 49.1096254657618,
        "lon": -0.3863684642825236
      }
    },
    {
      "station": "L250161001",
      "label": "Dissay",
      "cours": "Clain",
      "commune": "86095",
      "evenement": [],
      "gps": {
        "lat": 46.702576572590004,
        "lon": 0.4227290823793132
      }
    },
    {
      "station": "U132401001",
      "label": "Plombières-les-Dijon",
      "cours": "Ouche",
      "commune": "21485",
      "evenement": [],
      "gps": {
        "lat": 47.332536182920364,
        "lon": 4.980948456957807
      }
    },
    {
      "station": "U251542001",
      "label": "Vaire-Arcier",
      "cours": "source d'Arcier",
      "commune": "25575",
      "evenement": [],
      "gps": {
        "lat": 47.26879521586723,
        "lon": 6.11899675554058
      }
    },
    {
      "station": "K322201001",
      "label": "Pontgibaud",
      "cours": "Sioule",
      "commune": "63285",
      "evenement": [],
      "gps": {
        "lat": 45.83323730672589,
        "lon": 2.8490482062724505
      }
    },
    {
      "station": "H520101003",
      "label": "Châlons-en-Champagne",
      "cours": "Marne",
      "commune": "51108",
      "evenement": [],
      "gps": {
        "lat": 48.95095128066497,
        "lon": 4.353723063341069
      }
    },
    {
      "station": "A061005051",
      "label": "Strasbourg [sémaphore nord] [Limnimètre]",
      "cours": "Rhin",
      "commune": "67482",
      "evenement": {
        "DescEvenement": "ATTENTION, en raison des conditions locales*, les débits indiqués ne sont fiables que pour des valeurs supérieures à 1700 m3/s. Des valeurs erronées peuvent être affichées pour des débits plus faibles. * se reporter à la Banque Hydro pour plus de précisions (onglet 'infos station' puis 'FICHE STATION')",
        "DtEvenement": "2017-03-02 10:40:31"
      },
      "gps": {
        "lat": 48.59254033692791,
        "lon": 7.802870978789727
      }
    },
    {
      "station": "Y442404001",
      "label": "Aubagne [Le Charrel]",
      "cours": "Huveaune",
      "commune": "13005",
      "evenement": [],
      "gps": {
        "lat": 43.28953266359409,
        "lon": 5.556903221296799
      }
    },
    {
      "station": "V163002002",
      "label": "Lagnieu [DREAL Rhône Alpes]",
      "cours": "Rhône",
      "commune": "01202",
      "evenement": {
        "DescEvenement": "Les débits sont publiés à partir de 158m3/s (hauteur > 0.20m).",
        "DtEvenement": "2017-02-28 14:30:31"
      },
      "gps": {
        "lat": 45.88088838299317,
        "lon": 5.340233187454063
      }
    },
    {
      "station": "A743061001",
      "label": "Metz [pont des Morts]",
      "cours": "Moselle",
      "commune": "57463",
      "evenement": [],
      "gps": {
        "lat": 49.122321530831165,
        "lon": 6.167185612157847
      }
    },
    {
      "station": "F700000103",
      "label": "Paris [Austerlitz - Station ultrason]",
      "cours": "Seine",
      "commune": "75056",
      "evenement": [],
      "gps": {
        "lat": 48.844689579677976,
        "lon": 2.365510635426925
      }
    },
    {
      "station": "K435001010",
      "label": "Orléans [Pont Royal]",
      "cours": "Loire",
      "commune": "45234",
      "evenement": {
        "DescEvenement": "Station de référence en crue, située au pont George V, dont les valeurs sont publiées dans le bulletin d&#039;information du SPC.\nIl n&#039;y a pas de concordance des hauteurs entre les 2 stations, Orléans Pont et Orléans Quai.\n",
        "DtEvenement": "2017-02-28 14:30:31"
      },
      "gps": {
        "lat": 47.89732382319809,
        "lon": 1.9047891133749535
      }
    },
    {
      "station": "M530001010",
      "label": "Montjean",
      "cours": "Loire",
      "commune": "49212",
      "evenement": [],
      "gps": {
        "lat": 47.39230510140693,
        "lon": -0.861211184981625
      }
    },
    {
      "station": "Y321001001",
      "label": "Montpellier [Garigliano]",
      "cours": "Lez",
      "commune": "34172",
      "evenement": [],
      "gps": {
        "lat": 43.618769804122614,
        "lon": 3.8967318689103423
      }
    },
    {
      "station": "O200001001",
      "label": "Portet",
      "cours": "Garonne",
      "commune": "31433",
      "evenement": [],
      "gps": {
        "lat": 43.526472706557456,
        "lon": 1.415129716580194
      }
    },
    {
      "station": "H438021010",
      "label": "Louviers",
      "cours": "Eure",
      "commune": "27375",
      "evenement": [],
      "gps": {
        "lat": 49.224075299459614,
        "lon": 1.1769177238429835
      }
    },
    {
      "station": "J709063002",
      "label": "Cesson-Sévigné [Pont Briant]",
      "cours": "Vilaine",
      "commune": "35051",
      "evenement": [],
      "gps": {
        "lat": 48.12370697186764,
        "lon": -1.5637493986757462
      }
    }
  ],
  "stationsH": [
    {
      "station": "E640091001",
      "label": "Lamotte-Brebière",
      "cours": "Somme canalisée",
      "commune": "80461",
      "evenement": [],
      "gps": {
        "lat": 49.88426840633553,
        "lon": 2.396664264269847
      }
    },
    {
      "station": "E381126501",
      "label": "Bousbecque",
      "cours": "Lys",
      "commune": "59098",
      "evenement": [],
      "gps": {
        "lat": 50.775864391041026,
        "lon": 3.07379561839313
      }
    },
    {
      "station": "O919001001",
      "label": "La Réole",
      "cours": "Garonne",
      "commune": "33352",
      "evenement": {
        "DescEvenement": "Station de La Réole: les hauteurs affichées sur le site sont données selon une référence altimétrique locale propre à la station de mesure. Pour obtenir la hauteur rapportée au nivellement général de la France (NGF IGN69), ajoutez 6,23 à la valeur lue.",
        "DtEvenement": "2017-02-28 14:30:31"
      },
      "gps": {
        "lat": 44.57765960180708,
        "lon": -0.036048421867029744
      }
    },
    {
      "station": "H520101003",
      "label": "Châlons-en-Champagne",
      "cours": "Marne",
      "commune": "51108",
      "evenement": [],
      "gps": {
        "lat": 48.95095128066497,
        "lon": 4.353723063341069
      }
    },
    {
      "station": "K322201001",
      "label": "Pontgibaud",
      "cours": "Sioule",
      "commune": "63285",
      "evenement": [],
      "gps": {
        "lat": 45.83323730672589,
        "lon": 2.8490482062724505
      }
    },
    {
      "station": "L040061002",
      "label": "Limoges [Pont-Neuf]",
      "cours": "Vienne",
      "commune": "87085",
      "evenement": [],
      "gps": {
        "lat": 45.82564459174513,
        "lon": 1.2699518950681945
      }
    },
    {
      "station": "U251542001",
      "label": "Vaire-Arcier",
      "cours": "source d'Arcier",
      "commune": "25575",
      "evenement": [],
      "gps": {
        "lat": 47.26879521586723,
        "lon": 6.11899675554058
      }
    },
    {
      "station": "Y321001001",
      "label": "Montpellier [Garigliano]",
      "cours": "Lez",
      "commune": "34172",
      "evenement": [],
      "gps": {
        "lat": 43.618769804122614,
        "lon": 3.8967318689103423
      }
    },
    {
      "station": "I362101001",
      "label": "May-sur-Orne",
      "cours": "Orne",
      "commune": "14408",
      "evenement": [],
      "gps": {
        "lat": 49.1096254657618,
        "lon": -0.3863684642825236
      }
    },
    {
      "station": "V163002002",
      "label": "Lagnieu [DREAL Rhône Alpes]",
      "cours": "Rhône",
      "commune": "01202",
      "evenement": {
        "DescEvenement": "Les débits sont publiés à partir de 158m3/s (hauteur > 0.20m).",
        "DtEvenement": "2017-02-28 14:30:31"
      },
      "gps": {
        "lat": 45.88088838299317,
        "lon": 5.340233187454063
      }
    },
    {
      "station": "Y442404001",
      "label": "Aubagne [Le Charrel]",
      "cours": "Huveaune",
      "commune": "13005",
      "evenement": [],
      "gps": {
        "lat": 43.28953266359409,
        "lon": 5.556903221296799
      }
    },
    {
      "station": "A743061001",
      "label": "Metz [pont des Morts]",
      "cours": "Moselle",
      "commune": "57463",
      "evenement": [],
      "gps": {
        "lat": 49.122321530831165,
        "lon": 6.167185612157847
      }
    },
    {
      "station": "M530001010",
      "label": "Montjean",
      "cours": "Loire",
      "commune": "49212",
      "evenement": [],
      "gps": {
        "lat": 47.39230510140693,
        "lon": -0.861211184981625
      }
    },
    {
      "station": "O200001001",
      "label": "Portet",
      "cours": "Garonne",
      "commune": "31433",
      "evenement": [],
      "gps": {
        "lat": 43.526472706557456,
        "lon": 1.415129716580194
      }
    },
    {
      "station": "A061005051",
      "label": "Strasbourg [sémaphore nord] [Limnimètre]",
      "cours": "Rhin",
      "commune": "67482",
      "evenement": {
        "DescEvenement": "ATTENTION, en raison des conditions locales*, les débits indiqués ne sont fiables que pour des valeurs supérieures à 1700 m3/s. Des valeurs erronées peuvent être affichées pour des débits plus faibles. * se reporter à la Banque Hydro pour plus de précisions (onglet 'infos station' puis 'FICHE STATION')",
        "DtEvenement": "2017-03-02 10:40:31"
      },
      "gps": {
        "lat": 48.59254033692791,
        "lon": 7.802870978789727
      }
    },
    {
      "station": "F700000103",
      "label": "Paris [Austerlitz - Station ultrason]",
      "cours": "Seine",
      "commune": "75056",
      "evenement": [],
      "gps": {
        "lat": 48.844689579677976,
        "lon": 2.365510635426925
      }
    },
    {
      "station": "H438021010",
      "label": "Louviers",
      "cours": "Eure",
      "commune": "27375",
      "evenement": [],
      "gps": {
        "lat": 49.224075299459614,
        "lon": 1.1769177238429835
      }
    },
    {
      "station": "L250161001",
      "label": "Dissay",
      "cours": "Clain",
      "commune": "86095",
      "evenement": [],
      "gps": {
        "lat": 46.702576572590004,
        "lon": 0.4227290823793132
      }
    },
    {
      "station": "U132401001",
      "label": "Plombières-les-Dijon",
      "cours": "Ouche",
      "commune": "21485",
      "evenement": [],
      "gps": {
        "lat": 47.332536182920364,
        "lon": 4.980948456957807
      }
    },
    {
      "station": "K435001010",
      "label": "Orléans [Pont Royal]",
      "cours": "Loire",
      "commune": "45234",
      "evenement": {
        "DescEvenement": "Station de référence en crue, située au pont George V, dont les valeurs sont publiées dans le bulletin d&#039;information du SPC.\nIl n&#039;y a pas de concordance des hauteurs entre les 2 stations, Orléans Pont et Orléans Quai.\n",
        "DtEvenement": "2017-02-28 14:30:31"
      },
      "gps": {
        "lat": 47.89732382319809,
        "lon": 1.9047891133749535
      }
    },
    {
      "station": "J709063002",
      "label": "Cesson-Sévigné [Pont Briant]",
      "cours": "Vilaine",
      "commune": "35051",
      "evenement": [],
      "gps": {
        "lat": 48.12370697186764,
        "lon": -1.5637493986757462
      }
    },
    {
      "station": "U132401001",
      "label": "Plombières-les-Dijon",
      "cours": "Ouche",
      "commune": "21485",
      "evenement": [],
      "gps": {
        "lat": 47.332536182920364,
        "lon": 4.980948456957807
      }
    },
    {
      "station": "O919001001",
      "label": "La Réole",
      "cours": "Garonne",
      "commune": "33352",
      "evenement": {
        "DescEvenement": "Station de La Réole: les hauteurs affichées sur le site sont données selon une référence altimétrique locale propre à la station de mesure. Pour obtenir la hauteur rapportée au nivellement général de la France (NGF IGN69), ajoutez 6,23 à la valeur lue.",
        "DtEvenement": "2017-02-28 14:30:31"
      },
      "gps": {
        "lat": 44.57765960180708,
        "lon": -0.036048421867029744
      }
    },
    {
      "station": "U251542001",
      "label": "Vaire-Arcier",
      "cours": "source d'Arcier",
      "commune": "25575",
      "evenement": [],
      "gps": {
        "lat": 47.26879521586723,
        "lon": 6.11899675554058
      }
    },
    {
      "station": "E381126501",
      "label": "Bousbecque",
      "cours": "Lys",
      "commune": "59098",
      "evenement": [],
      "gps": {
        "lat": 50.775864391041026,
        "lon": 3.07379561839313
      }
    },
    {
      "station": "I362101001",
      "label": "May-sur-Orne",
      "cours": "Orne",
      "commune": "14408",
      "evenement": [],
      "gps": {
        "lat": 49.1096254657618,
        "lon": -0.3863684642825236
      }
    },
    {
      "station": "F700000103",
      "label": "Paris [Austerlitz - Station ultrason]",
      "cours": "Seine",
      "commune": "75056",
      "evenement": [],
      "gps": {
        "lat": 48.844689579677976,
        "lon": 2.365510635426925
      }
    },
    {
      "station": "V163002002",
      "label": "Lagnieu [DREAL Rhône Alpes]",
      "cours": "Rhône",
      "commune": "01202",
      "evenement": {
        "DescEvenement": "Les débits sont publiés à partir de 158m3/s (hauteur > 0.20m).",
        "DtEvenement": "2017-02-28 14:30:31"
      },
      "gps": {
        "lat": 45.88088838299317,
        "lon": 5.340233187454063
      }
    },
    {
      "station": "E640091001",
      "label": "Lamotte-Brebière",
      "cours": "Somme canalisée",
      "commune": "80461",
      "evenement": [],
      "gps": {
        "lat": 49.88426840633553,
        "lon": 2.396664264269847
      }
    },
    {
      "station": "L250161001",
      "label": "Dissay",
      "cours": "Clain",
      "commune": "86095",
      "evenement": [],
      "gps": {
        "lat": 46.702576572590004,
        "lon": 0.4227290823793132
      }
    },
    {
      "station": "A061005051",
      "label": "Strasbourg [sémaphore nord] [Limnimètre]",
      "cours": "Rhin",
      "commune": "67482",
      "evenement": {
        "DescEvenement": "ATTENTION, en raison des conditions locales*, les débits indiqués ne sont fiables que pour des valeurs supérieures à 1700 m3/s. Des valeurs erronées peuvent être affichées pour des débits plus faibles. * se reporter à la Banque Hydro pour plus de précisions (onglet 'infos station' puis 'FICHE STATION')",
        "DtEvenement": "2017-03-02 10:40:31"
      },
      "gps": {
        "lat": 48.59254033692791,
        "lon": 7.802870978789727
      }
    },
    {
      "station": "Y321001001",
      "label": "Montpellier [Garigliano]",
      "cours": "Lez",
      "commune": "34172",
      "evenement": [],
      "gps": {
        "lat": 43.618769804122614,
        "lon": 3.8967318689103423
      }
    },
    {
      "station": "J709063002",
      "label": "Cesson-Sévigné [Pont Briant]",
      "cours": "Vilaine",
      "commune": "35051",
      "evenement": [],
      "gps": {
        "lat": 48.12370697186764,
        "lon": -1.5637493986757462
      }
    },
    {
      "station": "K435001010",
      "label": "Orléans [Pont Royal]",
      "cours": "Loire",
      "commune": "45234",
      "evenement": {
        "DescEvenement": "Station de référence en crue, située au pont George V, dont les valeurs sont publiées dans le bulletin d&#039;information du SPC.\nIl n&#039;y a pas de concordance des hauteurs entre les 2 stations, Orléans Pont et Orléans Quai.\n",
        "DtEvenement": "2017-02-28 14:30:31"
      },
      "gps": {
        "lat": 47.89732382319809,
        "lon": 1.9047891133749535
      }
    },
    {
      "station": "L040061002",
      "label": "Limoges [Pont-Neuf]",
      "cours": "Vienne",
      "commune": "87085",
      "evenement": [],
      "gps": {
        "lat": 45.82564459174513,
        "lon": 1.2699518950681945
      }
    },
    {
      "station": "A743061001",
      "label": "Metz [pont des Morts]",
      "cours": "Moselle",
      "commune": "57463",
      "evenement": [],
      "gps": {
        "lat": 49.122321530831165,
        "lon": 6.167185612157847
      }
    },
    {
      "station": "M530001010",
      "label": "Montjean",
      "cours": "Loire",
      "commune": "49212",
      "evenement": [],
      "gps": {
        "lat": 47.39230510140693,
        "lon": -0.861211184981625
      }
    },
    {
      "station": "H520101003",
      "label": "Châlons-en-Champagne",
      "cours": "Marne",
      "commune": "51108",
      "evenement": [],
      "gps": {
        "lat": 48.95095128066497,
        "lon": 4.353723063341069
      }
    },
    {
      "station": "Y442404001",
      "label": "Aubagne [Le Charrel]",
      "cours": "Huveaune",
      "commune": "13005",
      "evenement": [],
      "gps": {
        "lat": 43.28953266359409,
        "lon": 5.556903221296799
      }
    },
    {
      "station": "O200001001",
      "label": "Portet",
      "cours": "Garonne",
      "commune": "31433",
      "evenement": [],
      "gps": {
        "lat": 43.526472706557456,
        "lon": 1.415129716580194
      }
    },
    {
      "station": "H438021010",
      "label": "Louviers",
      "cours": "Eure",
      "commune": "27375",
      "evenement": [],
      "gps": {
        "lat": 49.224075299459614,
        "lon": 1.1769177238429835
      }
    },
    {
      "station": "K322201001",
      "label": "Pontgibaud",
      "cours": "Sioule",
      "commune": "63285",
      "evenement": [],
      "gps": {
        "lat": 45.83323730672589,
        "lon": 2.8490482062724505
      }
    },
    {
      "station": "O919001001",
      "label": "La Réole",
      "cours": "Garonne",
      "commune": "33352",
      "evenement": {
        "DescEvenement": "Station de La Réole: les hauteurs affichées sur le site sont données selon une référence altimétrique locale propre à la station de mesure. Pour obtenir la hauteur rapportée au nivellement général de la France (NGF IGN69), ajoutez 6,23 à la valeur lue.",
        "DtEvenement": "2017-02-28 14:30:31"
      },
      "gps": {
        "lat": 44.57765960180708,
        "lon": -0.036048421867029744
      }
    },
    {
      "station": "I362101001",
      "label": "May-sur-Orne",
      "cours": "Orne",
      "commune": "14408",
      "evenement": [],
      "gps": {
        "lat": 49.1096254657618,
        "lon": -0.3863684642825236
      }
    },
    {
      "station": "E640091001",
      "label": "Lamotte-Brebière",
      "cours": "Somme canalisée",
      "commune": "80461",
      "evenement": [],
      "gps": {
        "lat": 49.88426840633553,
        "lon": 2.396664264269847
      }
    },
    {
      "station": "U251542001",
      "label": "Vaire-Arcier",
      "cours": "source d'Arcier",
      "commune": "25575",
      "evenement": [],
      "gps": {
        "lat": 47.26879521586723,
        "lon": 6.11899675554058
      }
    },
    {
      "station": "H520101003",
      "label": "Châlons-en-Champagne",
      "cours": "Marne",
      "commune": "51108",
      "evenement": [],
      "gps": {
        "lat": 48.95095128066497,
        "lon": 4.353723063341069
      }
    },
    {
      "station": "Y442404001",
      "label": "Aubagne [Le Charrel]",
      "cours": "Huveaune",
      "commune": "13005",
      "evenement": [],
      "gps": {
        "lat": 43.28953266359409,
        "lon": 5.556903221296799
      }
    },
    {
      "station": "K435001010",
      "label": "Orléans [Pont Royal]",
      "cours": "Loire",
      "commune": "45234",
      "evenement": {
        "DescEvenement": "Station de référence en crue, située au pont George V, dont les valeurs sont publiées dans le bulletin d&#039;information du SPC.\nIl n&#039;y a pas de concordance des hauteurs entre les 2 stations, Orléans Pont et Orléans Quai.\n",
        "DtEvenement": "2017-02-28 14:30:31"
      },
      "gps": {
        "lat": 47.89732382319809,
        "lon": 1.9047891133749535
      }
    },
    {
      "station": "K322201001",
      "label": "Pontgibaud",
      "cours": "Sioule",
      "commune": "63285",
      "evenement": [],
      "gps": {
        "lat": 45.83323730672589,
        "lon": 2.8490482062724505
      }
    },
    {
      "station": "L250161001",
      "label": "Dissay",
      "cours": "Clain",
      "commune": "86095",
      "evenement": [],
      "gps": {
        "lat": 46.702576572590004,
        "lon": 0.4227290823793132
      }
    },
    {
      "station": "F700000103",
      "label": "Paris [Austerlitz - Station ultrason]",
      "cours": "Seine",
      "commune": "75056",
      "evenement": [],
      "gps": {
        "lat": 48.844689579677976,
        "lon": 2.365510635426925
      }
    },
    {
      "station": "A743061001",
      "label": "Metz [pont des Morts]",
      "cours": "Moselle",
      "commune": "57463",
      "evenement": [],
      "gps": {
        "lat": 49.122321530831165,
        "lon": 6.167185612157847
      }
    },
    {
      "station": "A061005051",
      "label": "Strasbourg [sémaphore nord] [Limnimètre]",
      "cours": "Rhin",
      "commune": "67482",
      "evenement": {
        "DescEvenement": "ATTENTION, en raison des conditions locales*, les débits indiqués ne sont fiables que pour des valeurs supérieures à 1700 m3/s. Des valeurs erronées peuvent être affichées pour des débits plus faibles. * se reporter à la Banque Hydro pour plus de précisions (onglet 'infos station' puis 'FICHE STATION')",
        "DtEvenement": "2017-03-02 10:40:31"
      },
      "gps": {
        "lat": 48.59254033692791,
        "lon": 7.802870978789727
      }
    },
    {
      "station": "J709063002",
      "label": "Cesson-Sévigné [Pont Briant]",
      "cours": "Vilaine",
      "commune": "35051",
      "evenement": [],
      "gps": {
        "lat": 48.12370697186764,
        "lon": -1.5637493986757462
      }
    },
    {
      "station": "Y321001001",
      "label": "Montpellier [Garigliano]",
      "cours": "Lez",
      "commune": "34172",
      "evenement": [],
      "gps": {
        "lat": 43.618769804122614,
        "lon": 3.8967318689103423
      }
    },
    {
      "station": "U132401001",
      "label": "Plombières-les-Dijon",
      "cours": "Ouche",
      "commune": "21485",
      "evenement": [],
      "gps": {
        "lat": 47.332536182920364,
        "lon": 4.980948456957807
      }
    },
    {
      "station": "E381126501",
      "label": "Bousbecque",
      "cours": "Lys",
      "commune": "59098",
      "evenement": [],
      "gps": {
        "lat": 50.775864391041026,
        "lon": 3.07379561839313
      }
    },
    {
      "station": "H438021010",
      "label": "Louviers",
      "cours": "Eure",
      "commune": "27375",
      "evenement": [],
      "gps": {
        "lat": 49.224075299459614,
        "lon": 1.1769177238429835
      }
    },
    {
      "station": "V163002002",
      "label": "Lagnieu [DREAL Rhône Alpes]",
      "cours": "Rhône",
      "commune": "01202",
      "evenement": {
        "DescEvenement": "Les débits sont publiés à partir de 158m3/s (hauteur > 0.20m).",
        "DtEvenement": "2017-02-28 14:30:31"
      },
      "gps": {
        "lat": 45.88088838299317,
        "lon": 5.340233187454063
      }
    },
    {
      "station": "M530001010",
      "label": "Montjean",
      "cours": "Loire",
      "commune": "49212",
      "evenement": [],
      "gps": {
        "lat": 47.39230510140693,
        "lon": -0.861211184981625
      }
    },
    {
      "station": "L040061002",
      "label": "Limoges [Pont-Neuf]",
      "cours": "Vienne",
      "commune": "87085",
      "evenement": [],
      "gps": {
        "lat": 45.82564459174513,
        "lon": 1.2699518950681945
      }
    },
    {
      "station": "O200001001",
      "label": "Portet",
      "cours": "Garonne",
      "commune": "31433",
      "evenement": [],
      "gps": {
        "lat": 43.526472706557456,
        "lon": 1.415129716580194
      }
    },
    {
      "station": "H520101003",
      "label": "Châlons-en-Champagne",
      "cours": "Marne",
      "commune": "51108",
      "evenement": [],
      "gps": {
        "lat": 48.95095128066497,
        "lon": 4.353723063341069
      }
    },
    {
      "station": "U132401001",
      "label": "Plombières-les-Dijon",
      "cours": "Ouche",
      "commune": "21485",
      "evenement": [],
      "gps": {
        "lat": 47.332536182920364,
        "lon": 4.980948456957807
      }
    },
    {
      "station": "K322201001",
      "label": "Pontgibaud",
      "cours": "Sioule",
      "commune": "63285",
      "evenement": [],
      "gps": {
        "lat": 45.83323730672589,
        "lon": 2.8490482062724505
      }
    },
    {
      "station": "E640091001",
      "label": "Lamotte-Brebière",
      "cours": "Somme canalisée",
      "commune": "80461",
      "evenement": [],
      "gps": {
        "lat": 49.88426840633553,
        "lon": 2.396664264269847
      }
    },
    {
      "station": "O919001001",
      "label": "La Réole",
      "cours": "Garonne",
      "commune": "33352",
      "evenement": {
        "DescEvenement": "Station de La Réole: les hauteurs affichées sur le site sont données selon une référence altimétrique locale propre à la station de mesure. Pour obtenir la hauteur rapportée au nivellement général de la France (NGF IGN69), ajoutez 6,23 à la valeur lue.",
        "DtEvenement": "2017-02-28 14:30:31"
      },
      "gps": {
        "lat": 44.57765960180708,
        "lon": -0.036048421867029744
      }
    },
    {
      "station": "U251542001",
      "label": "Vaire-Arcier",
      "cours": "source d'Arcier",
      "commune": "25575",
      "evenement": [],
      "gps": {
        "lat": 47.26879521586723,
        "lon": 6.11899675554058
      }
    },
    {
      "station": "I362101001",
      "label": "May-sur-Orne",
      "cours": "Orne",
      "commune": "14408",
      "evenement": [],
      "gps": {
        "lat": 49.1096254657618,
        "lon": -0.3863684642825236
      }
    },
    {
      "station": "L040061002",
      "label": "Limoges [Pont-Neuf]",
      "cours": "Vienne",
      "commune": "87085",
      "evenement": [],
      "gps": {
        "lat": 45.82564459174513,
        "lon": 1.2699518950681945
      }
    },
    {
      "station": "E381126501",
      "label": "Bousbecque",
      "cours": "Lys",
      "commune": "59098",
      "evenement": [],
      "gps": {
        "lat": 50.775864391041026,
        "lon": 3.07379561839313
      }
    },
    {
      "station": "Y442404001",
      "label": "Aubagne [Le Charrel]",
      "cours": "Huveaune",
      "commune": "13005",
      "evenement": [],
      "gps": {
        "lat": 43.28953266359409,
        "lon": 5.556903221296799
      }
    },
    {
      "station": "V163002002",
      "label": "Lagnieu [DREAL Rhône Alpes]",
      "cours": "Rhône",
      "commune": "01202",
      "evenement": {
        "DescEvenement": "Les débits sont publiés à partir de 158m3/s (hauteur > 0.20m).",
        "DtEvenement": "2017-02-28 14:30:31"
      },
      "gps": {
        "lat": 45.88088838299317,
        "lon": 5.340233187454063
      }
    },
    {
      "station": "Y321001001",
      "label": "Montpellier [Garigliano]",
      "cours": "Lez",
      "commune": "34172",
      "evenement": [],
      "gps": {
        "lat": 43.618769804122614,
        "lon": 3.8967318689103423
      }
    },
    {
      "station": "A743061001",
      "label": "Metz [pont des Morts]",
      "cours": "Moselle",
      "commune": "57463",
      "evenement": [],
      "gps": {
        "lat": 49.122321530831165,
        "lon": 6.167185612157847
      }
    },
    {
      "station": "L250161001",
      "label": "Dissay",
      "cours": "Clain",
      "commune": "86095",
      "evenement": [],
      "gps": {
        "lat": 46.702576572590004,
        "lon": 0.4227290823793132
      }
    },
    {
      "station": "M530001010",
      "label": "Montjean",
      "cours": "Loire",
      "commune": "49212",
      "evenement": [],
      "gps": {
        "lat": 47.39230510140693,
        "lon": -0.861211184981625
      }
    },
    {
      "station": "J709063002",
      "label": "Cesson-Sévigné [Pont Briant]",
      "cours": "Vilaine",
      "commune": "35051",
      "evenement": [],
      "gps": {
        "lat": 48.12370697186764,
        "lon": -1.5637493986757462
      }
    },
    {
      "station": "K435001010",
      "label": "Orléans [Pont Royal]",
      "cours": "Loire",
      "commune": "45234",
      "evenement": {
        "DescEvenement": "Station de référence en crue, située au pont George V, dont les valeurs sont publiées dans le bulletin d&#039;information du SPC.\nIl n&#039;y a pas de concordance des hauteurs entre les 2 stations, Orléans Pont et Orléans Quai.\n",
        "DtEvenement": "2017-02-28 14:30:31"
      },