[
  {
    "city": "lille",
    "lat": 50.633,
    "lon": 3.067
  }, {
    "city": "amiens",
    "lat": 49.900,
    "lon": 2.300
  }, {
    "city": "caen",
    "lat": 49.183,
    "lon": -0.350
  }, {
    "city": "rouen",
    "lat": 49.433,
    "lon": 1.083
  }, {
    "city": "paris",
    "lat": 48.866,
    "lon": 2.333
  }, {
    "city": "chalons",
    "lat": 48.958,
    "lon": 4.367
  }, {
    "city": "metz",
    "lat": 49.133,
    "lon": 6.166
  }, {
    "city": "strasbourg",
    "lat": 48.583,
    "lon": 7.750
  }, {
    "city": "rennes",
    "lat": 48.083,
    "lon": -1.683
  }, {
    "city": "nantes",
    "lat": 47.109,
    "lon": -1.114
  }, {
    "city": "orleans",
    "lat": 47.917,
    "lon": 1.900
  }, {
    "city": "dijon",
    "lat": 47.317,
    "lon": 5.017
  }, {
    "city": "besancon",
    "lat": 47.250,
    "lon": 6.033
  }, {
    "city": "lyon",
    "lat": 45.648,
    "lon": 5.280
  }, {
    "city": "poitiers",
    "lat": 46.583,
    "lon": 0.333
  }, {
    "city": "limoges",
    "lat": 45.850,
    "lon": 1.250
  }, {
    "city": "clermont",
    "lat": 43.033,
    "lon": 1.283
  }, {
    "city": "bordeaux",
    "lat": 44.833,
    "lon": -0.567
  }, {
    "city": "toulouse",
    "lat": 43.600,
    "lon": 1.433
  }, {
    "city": "montpellier",
    "lat": 43.600,
    "lon": 3.883
  }, {
    "city": "marseille",
    "lat": 43.300,
    "lon": 5.400
  }
]
